[
  {
    "id": 1,
    "formatted_address": "209 NW 4th St, Abilene, KS 67410, USA",
    "lat": 38.9185035,
    "lng": -97.21534739999998,
    "rating": 4.8,
    "place_id": "ChIJQRGh447wvIcR0eXM8zezboE",
    "opening_hours": { "open_now": false },
    "photo": null,
    "name": "Abilene Public Library",
    "phone": "(785) 263-3082"
  },
  {
    "id": 2,
    "formatted_address": "222 Main St, Agra, KS 67621, USA",
    "lat": 39.7607157,
    "lng": -99.1189594,
    "rating": 0,
    "place_id": "ChIJh5vzs8atmIcRW-pNePAeFas",
    "opening_hours": { "open_now": false },
    "photo": null,
    "name": "Agra-F Lee Doctor Library",
    "phone": "(785) 638-2471"
  },
  {
    "id": 3,
    "formatted_address": "222 Main St, Agra, KS 67621, USA",
    "lat": 39.7607157,
    "lng": -99.1189594,
    "rating": 0,
    "place_id": "ChIJh5vzs8atmIcRW-pNePAeFas",
    "opening_hours": { "open_now": false },
    "photo": null,
    "name": "F. Lee Doctor Public Library, Agra",
    "phone": "(913) 638-2444"
  },
  {
    "id": 4,
    "formatted_address": "421 S Main St, Allen, KS 66833, USA",
    "lat": 38.6556214,
    "lng": -96.16994199999999,
    "rating": 0,
    "place_id": "ChIJK8IF4aCwvocRNw4dfQ28fq8",
    "opening_hours": { "open_now": false },
    "photo": null,
    "name": "Lyon County Library Dist. 1",
    "phone": "(620) 528-3451"
  },
  {
    "id": 5,
    "formatted_address": "415 Main St, Almena, KS 67622, USA",
    "lat": 39.8932206,
    "lng": -99.70636919999998,
    "rating": 0,
    "place_id": "ChIJT9IGLU9tn4cRKAszPp11DR4",
    "photo": null,
    "name": "Almena City Library",
    "phone": "(785) 669-2336"
  },
  {
    "id": 6,
    "formatted_address": "407 Huston Ave, Altamont, KS 67330, USA",
    "lat": 37.1924,
    "lng": -95.29691170000001,
    "rating": 0,
    "place_id": "ChIJM9nKxO4duIcRdmB2r7lQOrQ",
    "opening_hours": { "open_now": false },
    "photo": null,
    "name": "Altamont Public Library",
    "phone": "(620) 784-5530"
  },
  {
    "id": 7,
    "formatted_address": "710 Main St, Americus, KS 66835, USA",
    "lat": 38.5073982,
    "lng": -96.26242639999998,
    "rating": 0,
    "place_id": "ChIJ99QEmBWtvocRjsw3a1wqo2g",
    "photo": null,
    "name": "Americus Township Library",
    "phone": "(620) 443-5503"
  },
  {
    "id": 8,
    "formatted_address": "328 Main St, Andale, KS 67001, USA",
    "lat": 37.7915211,
    "lng": -97.62985809999998,
    "rating": 0,
    "place_id": "ChIJ2RzTWpQou4cRU3FfhEo3L9A",
    "opening_hours": { "open_now": false },
    "photo": null,
    "name": "Andale District Library",
    "phone": "(316) 444-2363"
  },
  {
    "id": 9,
    "formatted_address": "1511 E Central Ave, Andover, KS 67002, USA",
    "lat": 37.6933906,
    "lng": -97.1190206,
    "rating": 4.2,
    "place_id": "ChIJ31HtaDn_uocRcAuRtyDMQgk",
    "opening_hours": { "open_now": false },
    "photo": "https://maps.googleapis.com/maps/api/place/js/PhotoService.GetPhoto?1sCmRaAAAALfFsCeKVuI9cV8AnwS3WxP22Olweuf4O4DhqNs5ZXbMwn3JXKYdFYkCvClXugCWj266Fi0PiNkk17dizNQfEAxzPPrkZghfSMPLJeV4PMB5RAR9JkO-C4kpkoCzM1LG2EhDi_VlubPphSAjK9SiQelrPGhQ48wS_35BkLMLkfBseMt8wMyiLNA&3u3036&5m1&2e1&callback=none&key=AIzaSyDpY6WL8JItnEEaReTqil6YNEgvwtSMPgA&token=103492",
    "name": "Andover Public Library",
    "phone": "(316) 558-3500"
  },
  {
    "id": 10,
    "formatted_address": "624 E Main St, Anthony, KS 67003, USA",
    "lat": 37.1519822,
    "lng": -98.02268700000002,
    "rating": 3.7,
    "place_id": "ChIJm-bsQKBbpYcRxgpUWgjZiWw",
    "opening_hours": { "open_now": false },
    "photo": "https://maps.googleapis.com/maps/api/place/js/PhotoService.GetPhoto?1sCmRaAAAAVXwhPcACa1NB_Hir_lKpLusD9A2P0mASCBMPyvZTRhFzHJtYyK21mg3LFqDTvPzR_IQBev2ngspuDy3MkrNAcYsSzpIOqWhJ3iLKCeEWq7mc2-D21JP3_0tpGYJkkPkkEhBUqOBY_UBPSc4IaMJdnsQxGhSuuACcC097Do2stuq2cbU24Jo36A&3u3264&5m1&2e1&callback=none&key=AIzaSyDpY6WL8JItnEEaReTqil6YNEgvwtSMPgA&token=65270",
    "name": "Anthony Public Library",
    "phone": "(620) 842-5344"
  },
  {
    "id": 11,
    "formatted_address": "120 W Walnut St, Argonia, KS 67004, USA",
    "lat": 37.2657986,
    "lng": -97.76686330000001,
    "rating": 0,
    "place_id": "ChIJAc4-OyOzuocR6mygwaXjdVQ",
    "photo": null,
    "name": "Dixon Township Library",
    "phone": "(620) 435-6979"
  },
  {
    "id": 12,
    "formatted_address": "120 E 5th Ave, Arkansas City, KS 67005, USA",
    "lat": 37.06137400000001,
    "lng": -97.03808600000002,
    "rating": 4.5,
    "place_id": "ChIJ839VGbqBsIcREk3bBA0ZOl0",
    "opening_hours": { "open_now": false },
    "photo": "https://maps.googleapis.com/maps/api/place/js/PhotoService.GetPhoto?1sCmRaAAAAWt-YRROkjn43hOXL2Zp_LtMqukaBW7VGhvTLxzw46Ge4pWV2_QYYElkmWMhBFiUwktHCvSuPH4x5stkLL8sgYYzju-e1pAEaiDuxPDD85ecccO-ISL4PCxKNwbSJxuc8EhAvlcEnZgKSJIASmNDHeRjqGhTE4F7_rZ78L1w2z5IiFtaJzULt_Q&3u3024&5m1&2e1&callback=none&key=AIzaSyDpY6WL8JItnEEaReTqil6YNEgvwtSMPgA&token=55513",
    "name": "Arkansas City Public Library",
    "phone": "(620) 442-1280"
  },
  {
    "id": 13,
    "formatted_address": "900-998 W Main St, Arlington, KS 67514, USA",
    "lat": 37.8969808,
    "lng": -98.1871084,
    "rating": 5,
    "place_id": "ChIJsc1l7lfopIcRsnNeDK5x_PY",
    "photo": null,
    "name": "Arlington City Library",
    "phone": "(620) 538-2471"
  },
  {
    "id": 14,
    "formatted_address": "508 E Washington St, Arma, KS 66712, USA",
    "lat": 37.5441164,
    "lng": -94.69899980000002,
    "rating": 5,
    "place_id": "ChIJs5K94oq_x4cRFNhpukBPi1g",
    "opening_hours": { "open_now": false },
    "photo": null,
    "name": "Arma City Library",
    "phone": "(620) 347-4811"
  },
  {
    "id": 15,
    "formatted_address": "604 Main St, Ashland, KS 67831, USA",
    "lat": 37.190434,
    "lng": -99.765578,
    "rating": 5,
    "place_id": "ChIJ785KRQA3pocR1c0R2uwT7XA",
    "photo": null,
    "name": "Ashland Library",
    "phone": "(620) 635-2589"
  },
  {
    "id": 16,
    "formatted_address": "401 Kansas Ave, Atchison, KS 66002, USA",
    "lat": 39.5632796,
    "lng": -95.11802080000001,
    "rating": 4,
    "place_id": "ChIJ-z-P0ev0v4cRf-cNmRYYVJU",
    "opening_hours": { "open_now": false },
    "photo": null,
    "name": "Atchison Library",
    "phone": "(913) 367-1902"
  },
  {
    "id": 17,
    "formatted_address": "125 N Main St, Attica, KS 67009, USA",
    "lat": 37.240359,
    "lng": -98.22620219999999,
    "rating": 5,
    "place_id": "ChIJgzeZB8xupYcRqThdd8CeZh0",
    "photo": "https://maps.googleapis.com/maps/api/place/js/PhotoService.GetPhoto?1sCmRaAAAAl-mJtY2_yCB0rydLQ5kvVC2_XWhx38XUYdQzS2bwaWwafkjUl4ZLYyOQa6KbsI2-DokGzSOAn_PA9Hl1k66OVjHGY3GfZo4mMCmjEPegl5LjK8eaIhcq2ztm9wK-XSEaEhB-FL4eX2YZytYZHtklSqroGhR_P_h0C_TZIMEaRoWlg0yATuSO7g&3u4032&5m1&2e1&callback=none&key=AIzaSyDpY6WL8JItnEEaReTqil6YNEgvwtSMPgA&token=90265",
    "name": "Attica City Library",
    "phone": "(620) 254-7767"
  },
  {
    "id": 18,
    "formatted_address": "102 S 6th St, Atwood, KS 67730, USA",
    "lat": 39.8073956,
    "lng": -101.03979600000002,
    "rating": 0,
    "place_id": "ChIJhSyTe7sVdYcRH2PsjnNejKU",
    "opening_hours": { "open_now": false },
    "photo": "https://maps.googleapis.com/maps/api/place/js/PhotoService.GetPhoto?1sCmRaAAAAzMBaGD4go9rSHyyzXJEpcHBEk-oECbBgnbbsd0n6b9M92hk9aEnsb-0aJ6nCkyjvpLEHoB4hHpbWhMXTJobRjXdRVCTyCZImmZiDtHjeS6J4Uco1Bp7XwJ-lg4RdpSjvEhAm8RV58cezrFjHNE7N6FFoGhSbJFp8jZlBQcS4Cxm5jsZH3PdBuQ&3u5312&5m1&2e1&callback=none&key=AIzaSyDpY6WL8JItnEEaReTqil6YNEgvwtSMPgA&token=43577",
    "name": "Atwood Public Library",
    "phone": "(785) 626-3805"
  },
  {
    "id": 19,
    "formatted_address": "1609 State St, Augusta, KS 67010, USA",
    "lat": 37.6921258,
    "lng": -96.97968170000001,
    "rating": 4.8,
    "place_id": "ChIJBUEqQdlTuocRzUjO9gLhZ48",
    "opening_hours": { "open_now": false },
    "photo": "https://maps.googleapis.com/maps/api/place/js/PhotoService.GetPhoto?1sCmRaAAAAsTUI8AVDkEI8VBPwfpF2B_YuSr5-p69HLY-Rjnn-V00Uh99LyDQxbqYDZLiObq1pl7NLRuHOoT5DymjlFTgSnieyHuy6AA-YmQYC6MccCpKpt15GQSvGFNe57lq4jTjOEhDrRh2papN8kUOcYZVBDe3uGhSFdixqCIlglZNpFvnldlpO1IKqTw&3u720&5m1&2e1&callback=none&key=AIzaSyDpY6WL8JItnEEaReTqil6YNEgvwtSMPgA&token=37694",
    "name": "Augusta Public Library",
    "phone": "(316) 775-2681"
  },
  {
    "id": 20,
    "formatted_address": "401 Maple St, Axtell, KS 66403, USA",
    "lat": 39.8723399,
    "lng": -96.25903670000002,
    "rating": 0,
    "place_id": "ChIJ3yhkib_5lYcRU6z6kkTFI5w",
    "photo": null,
    "name": "Axtell Public Library",
    "phone": "(785) 736-2858"
  },
  {
    "id": 21,
    "formatted_address": "800 7th St, Baldwin City, KS 66006, USA",
    "lat": 38.7745972,
    "lng": -95.1871281,
    "rating": 5,
    "place_id": "ChIJj3c-ZHZbv4cRv2EkIzj_1Qs",
    "opening_hours": { "open_now": false },
    "photo": "https://maps.googleapis.com/maps/api/place/js/PhotoService.GetPhoto?1sCmRaAAAAU-NcUdGKCzADkpk917GSQMmPwMqfSrbjzYKGKSorp7y2hpn-ShH-SoEW_woHvZxxX8mBhE2mgXwRF0JJeWigdQ4WymanHQEiziT3mEjikhoH5CAwCFOCEOWjS7q-7eyaEhAzP5x4j51ejqKLWqWjH5-hGhS97IifSTy_51qqAFwI81pY2C2Uxw&3u5184&5m1&2e1&callback=none&key=AIzaSyDpY6WL8JItnEEaReTqil6YNEgvwtSMPgA&token=23360",
    "name": "Baldwin City Library",
    "phone": "(785) 594-3411"
  },
  {
    "id": 22,
    "formatted_address": "1400 158th St, Basehor, KS 66007, USA",
    "lat": 39.1224273,
    "lng": -94.94676070000003,
    "rating": 4.8,
    "place_id": "ChIJLY_H1jmEwIcR4UgPAt-5v34",
    "opening_hours": { "open_now": false },
    "photo": "https://maps.googleapis.com/maps/api/place/js/PhotoService.GetPhoto?1sCmRaAAAAIky-2fs_usLR2zEhTgGMGInq9oBYt6vaZQzh3JO0fGto6JRVNYT_WSpvJGl6XOtTH3EQx9Y5q4K4MhqJoYoXiLTawsh2CsWR9-B6wFlAMmM23ZSIg6gzJgeCMx2nvvySEhCbAigK1gkXGoWV-ySeFhZVGhQiElidGWCjOMzaMDEiycFAI-tGjQ&3u3264&5m1&2e1&callback=none&key=AIzaSyDpY6WL8JItnEEaReTqil6YNEgvwtSMPgA&token=13541",
    "name": "Basehor Community Library, Dist 2, Lv. Co.",
    "phone": "(913) 724-2828"
  },
  {
    "id": 23,
    "formatted_address": "210 W 10th St, Baxter Springs, KS 66713, USA",
    "lat": 37.0262171,
    "lng": -94.7371215,
    "rating": 5,
    "place_id": "ChIJCVCLNq8SyIcRgq6CBZW6gKQ",
    "opening_hours": { "open_now": false },
    "photo": null,
    "name": "Johnston Public Library",
    "phone": "(620) 856-5591"
  },
  {
    "id": 24,
    "formatted_address": "222 W 5th Ave, Belle Plaine, KS 67013, USA",
    "lat": 37.39387749999999,
    "lng": -97.28204199999999,
    "rating": 5,
    "place_id": "ChIJdxr__b2SuocRmKbR_r7wRGk",
    "opening_hours": { "open_now": false },
    "photo": "https://maps.googleapis.com/maps/api/place/js/PhotoService.GetPhoto?1sCmRaAAAAu0irAzMiBo6yyqX-6rS-xVLA64XDN12TTrjC4aY84BfP3bre9ywfwHV1CCd_DYu4vHz0y_2DE2P_efpZkohZTAWcOPa9BlKJ1VFv_KBq5a1lAWv7uKNGa6W9zSdfzuutEhAiR5IhEtOQU3nMzYX8SfXxGhQnaE5dXsj9SkugbwWzjtnOLqyYYw&3u960&5m1&2e1&callback=none&key=AIzaSyDpY6WL8JItnEEaReTqil6YNEgvwtSMPgA&token=107307",
    "name": "Belle Plaine Public Library",
    "phone": "(620) 488-3431"
  },
  {
    "id": 25,
    "formatted_address": "1327 19th St, Belleville, KS 66935, USA",
    "lat": 39.8229559,
    "lng": -97.62976420000001,
    "rating": 4,
    "place_id": "ChIJL1_CKl37l4cRLjLKTBD1dV8",
    "opening_hours": { "open_now": false },
    "photo": "https://maps.googleapis.com/maps/api/place/js/PhotoService.GetPhoto?1sCmRaAAAAiKTnCJKO0FPg6dBJVS-lxVKrdjBWcfIPmF8LzHFHDPyn1GCVMhaWi3zZm0A9-GWxqx98tQJ7bqLPpdB0tczo98YMUp18g8FDkqy4cSEWgPueGH9s26YLu7dlLMWMqE7uEhD2a0Bly0kHzl-kOkI3LLFpGhQLmcjeGDCL6433kippRQTlXDNhJQ&3u1792&5m1&2e1&callback=none&key=AIzaSyDpY6WL8JItnEEaReTqil6YNEgvwtSMPgA&token=65623",
    "name": "Belleville Public Library",
    "phone": "(785) 527-5305"
  },
  {
    "id": 26,
    "formatted_address": "1718, Beloit, KS 67420, USA",
    "lat": 39.47644,
    "lng": -98.10815689999998,
    "rating": 4.3,
    "place_id": "ChIJmYY6nue9oocRqKyi48h6750",
    "opening_hours": { "open_now": false },
    "photo": "https://maps.googleapis.com/maps/api/place/js/PhotoService.GetPhoto?1sCmRaAAAAV6M1KOKH_RClyqUU11xwlxfujA_FMj267wXn6r7xR5Ha0CF40ct3RgH3In1J3M8bsfG4pGQRZ6oZLaPa15R7_TbL3NSTUYlm7jki54hCYsVgx3GKR7_nRKk4KHig3lc_EhDlu9DJ80cwk9u1wdcTqhorGhSRbbJEaUDqXqiL9Vl0BADpqdB_-Q&3u3024&5m1&2e1&callback=none&key=AIzaSyDpY6WL8JItnEEaReTqil6YNEgvwtSMPgA&token=43264",
    "name": "Port Library",
    "phone": "(785) 738-3936"
  },
  {
    "id": 27,
    "formatted_address": "110 W Bressler, Bird City, KS 67731, USA",
    "lat": 39.7498907,
    "lng": -101.53220859999999,
    "rating": 5,
    "place_id": "ChIJGbW8EQzodIcRL1r6cY6wyH4",
    "photo": "https://maps.googleapis.com/maps/api/place/js/PhotoService.GetPhoto?1sCmRaAAAAL9F-kouQwDcOmTGjjXSatZKzouUhrEG5shAYKnLG5LL1fOKzNQpciLiCWi8S2Q4FwVlbEVHBmSlTRP-RUZnpe-DNO5c3ENZRBE8PMtlMyrrMeJk_UVra5IVmSrLZXnoKEhALG_ZPriiGv7q60hzOhZeTGhTG53uIlS7bYLv-E3B88C1pRYls0w&3u1836&5m1&2e1&callback=none&key=AIzaSyDpY6WL8JItnEEaReTqil6YNEgvwtSMPgA&token=94514",
    "name": "Bird City Public Library",
    "phone": "(785) 734-2203"
  },
  {
    "id": 28,
    "formatted_address": "202 Main St, Bison, KS 67520, USA",
    "lat": 38.521929,
    "lng": -99.19803130000003,
    "rating": 4,
    "place_id": "ChIJoVf5_5hYoYcRblvqL2JukZM",
    "opening_hours": { "open_now": false },
    "photo": "https://maps.googleapis.com/maps/api/place/js/PhotoService.GetPhoto?1sCmRaAAAANatFqQTcSu74VLeDKUmT-S2tAD28Sh1R7s3hZsQEigh-4FE2HeqBp_ySMVw0GCryQ_Fa931rb2lMqfSb1Kzck9f7t-Oc75ulBV6hSCPj3evIusBQeQDkDApoKJgxAiW1EhBxo6KwC1chHYZch-a4VSLJGhTmTex4eOFTnCcBQL9ShAdX4MuJ9Q&3u604&5m1&2e1&callback=none&key=AIzaSyDpY6WL8JItnEEaReTqil6YNEgvwtSMPgA&token=78939",
    "name": "Bison Community Library",
    "phone": "(785) 356-4803"
  },
  {
    "id": 29,
    "formatted_address": "316 E Main St, Blue Mound, KS 66010, USA",
    "lat": 38.0900305,
    "lng": -95.00851390000003,
    "rating": 0,
    "place_id": "ChIJ2TffZ69jx4cRp5SxyMbom0M",
    "opening_hours": { "open_now": false },
    "photo": null,
    "name": "Linn County Library Dist 3",
    "phone": "(913) 756-2628"
  },
  {
    "id": 30,
    "formatted_address": "14 Public Sq, Blue Rapids, KS 66411, United States",
    "lat": 39.6820853,
    "lng": -96.65846979999998,
    "rating": 5,
    "place_id": "ChIJXYh2_GPxvYcR7rFAnqd9iHY",
    "photo": "https://maps.googleapis.com/maps/api/place/js/PhotoService.GetPhoto?1sCmRaAAAAUlbtQp7LCbnJDo21J98nXTXXVBoV0CutHgA33YaDthVgmVsc1SHgXmdsYG80eBTMHXMsv17SmI1DYq5eGTJLlVBTTVBCdTb_vwB47zMqCIywMMITMugAifIajP0qDEHJEhDMWEQnjaac2LUVKSV7innEGhTAmLSR8-kAasxIIO_Nvtyo7xcwbg&3u3036&5m1&2e1&callback=none&key=AIzaSyDpY6WL8JItnEEaReTqil6YNEgvwtSMPgA&token=15291",
    "name": "Blue Rapids Public Library",
    "phone": "(785) 363-7709"
  },
  {
    "id": 31,
    "formatted_address": "201 N Nettleton Ave, Bonner Springs, KS 66012, USA",
    "lat": 39.0605078,
    "lng": -94.8835722,
    "rating": 4.5,
    "place_id": "ChIJc_dq0fqPwIcRmJJertW3dPI",
    "opening_hours": { "open_now": false },
    "photo": "https://maps.googleapis.com/maps/api/place/js/PhotoService.GetPhoto?1sCmRaAAAAdKc6KYuOye7xsIRPCbfe7DUqTF3scrMqmnbdzp-6kuso0MDZoILLVTnr7impT6gy6W-YvYiJ4OYsOqEZRVWec0O8DlGBzJz87Er1VKT5F1M7ex13Tbi6fURukXOutFhQEhAOZwCJ1CW1KnbaZmW-gDiIGhQ2ljbICFjL5VAkRmmG7pt3fvZL7g&3u5000&5m1&2e1&callback=none&key=AIzaSyDpY6WL8JItnEEaReTqil6YNEgvwtSMPgA&token=67860",
    "name": "Bonner Springs City Library",
    "phone": "(913) 441-2665"
  },
  {
    "id": 32,
    "formatted_address": "509 Clay St, Bronson, KS 66716, USA",
    "lat": 37.8949683,
    "lng": -95.07194390000001,
    "rating": 0,
    "place_id": "ChIJk2sv7TyAuIcRj0zKX8LH9gE",
    "opening_hours": { "open_now": false },
    "photo": "https://maps.googleapis.com/maps/api/place/js/PhotoService.GetPhoto?1sCmRaAAAA3eDQu_9_VUYOJre6gEIYvYu_BB4aF2WNz_UNwbIi9uM9iUfAOA2VLl-aiq30New_grvI2tQh4fZyXnCmTyBy49glAJB1oVA4VK7Cikv3pufbsmyMnxqiDWekxR95tLfnEhD-xZyo6mPdwIEAr9Jmu7nIGhT__KdAbbqklJ-1LDTSlEd2TMJ77Q&3u3502&5m1&2e1&callback=none&key=AIzaSyDpY6WL8JItnEEaReTqil6YNEgvwtSMPgA&token=39579",
    "name": "Bronson Public Library",
    "phone": "(620) 939-4910"
  },
  {
    "id": 33,
    "formatted_address": "120 S Main St, Bucklin, KS 67834, USA",
    "lat": 37.54878,
    "lng": -99.63380410000002,
    "rating": 5,
    "place_id": "ChIJ9z_YLC1fpocRiaBij8EP-x4",
    "opening_hours": { "open_now": false },
    "photo": null,
    "name": "Bucklin Public Library",
    "phone": "(620) 826-3223"
  },
  {
    "id": 34,
    "formatted_address": "121 N Main St, Buhler, KS 67522, USA",
    "lat": 38.1356658,
    "lng": -97.77079500000002,
    "rating": 5,
    "place_id": "ChIJH-O7DltLu4cRw1dUVIzJGxA",
    "opening_hours": { "open_now": false },
    "photo": null,
    "name": "Buhler Public Library",
    "phone": "(620) 543-2241"
  },
  {
    "id": 35,
    "formatted_address": "122 W Santa Fe Ave, Burlingame, KS 66413, USA",
    "lat": 38.7540232,
    "lng": -95.8357962,
    "rating": 5,
    "place_id": "ChIJgydJUIvbvocR2k1ufNkI3oE",
    "opening_hours": { "open_now": false },
    "photo": null,
    "name": "Burlingame Community Library",
    "phone": "(785) 654-3400"
  },
  {
    "id": 36,
    "formatted_address": "410 Juniatta St, Burlington, KS 66839, USA",
    "lat": 38.1976689,
    "lng": -95.73930860000002,
    "rating": 5,
    "place_id": "ChIJBxCQMw0guYcRjOytD_tn6lA",
    "opening_hours": { "open_now": false },
    "photo": "https://maps.googleapis.com/maps/api/place/js/PhotoService.GetPhoto?1sCmRaAAAAySQz6vWSXnWvElAI2ymjpG7wwuex-nFfjhFR7-Yy3bEg6U2ypvT2ak7R9aHA75sx5lwhrkJBwmR5wnCy6PomUL6Ic3xq3Z0gS0R4W1IH71GORDcQUCUGEpIntAveDBDxEhBbQLF4h-qY7rkiEpMlE8eQGhR1DQ2mt1VeSRS-RTzaoBVkTjhhcA&3u5184&5m1&2e1&callback=none&key=AIzaSyDpY6WL8JItnEEaReTqil6YNEgvwtSMPgA&token=123296",
    "name": "Coffey County Library",
    "phone": "(620) 364-2010"
  },
  {
    "id": 37,
    "formatted_address": "104 N Washington Ave, Burns, KS 66840, USA",
    "lat": 38.0894956,
    "lng": -96.88627680000002,
    "rating": 5,
    "place_id": "ChIJy_hVBw29u4cRlVoqH8d8bos",
    "photo": "https://maps.googleapis.com/maps/api/place/js/PhotoService.GetPhoto?1sCmRaAAAAsoRzMTL2meZLAppBDFZlZ4fQLwX07kmeR1aX6Zonu-YpXLLjEeSswEnE6Y_ONy6KyImcFhwmntfZr-wV67F6M0KUl7-MK79pLcqzadHnYIvIPoVcd-se3CzF9SOZke4DEhD1OO2VsknZVzhuVDEy4u_ZGhTdT0Mddw46qaMHlKFvvyhL7accbw&3u726&5m1&2e1&callback=none&key=AIzaSyDpY6WL8JItnEEaReTqil6YNEgvwtSMPgA&token=101676",
    "name": "Burns Public Library",
    "phone": "(620) 726-5717"
  },
  {
    "id": 38,
    "formatted_address": "221 Main St A, Burr Oak, KS 66936, USA",
    "lat": 39.8715655,
    "lng": -98.30600649999997,
    "rating": 0,
    "place_id": "ChIJeb3wsotvmIcR2Hsuuzn0pyM",
    "photo": null,
    "name": "Burr Oak Community Library",
    "phone": "(785) 647-5597"
  },
  {
    "id": 39,
    "formatted_address": "121 N Burrton Ave, Burrton, KS 67020, USA",
    "lat": 38.0250358,
    "lng": -97.67201620000003,
    "rating": 5,
    "place_id": "ChIJG71eVl82u4cRzK2JHxcZoTc",
    "opening_hours": { "open_now": false },
    "photo": null,
    "name": "Burrton Public Library",
    "phone": "(316) 463-7902"
  },
  {
    "id": 40,
    "formatted_address": "121 N Burrton Ave, Burrton, KS 67020, USA",
    "lat": 38.0250358,
    "lng": -97.67201620000003,
    "rating": 5,
    "place_id": "ChIJG71eVl82u4cRzK2JHxcZoTc",
    "opening_hours": { "open_now": false },
    "photo": null,
    "name": "Ruth Dole Memorial Library",
    "phone": "(620) 463-7902"
  },
  {
    "id": 41,
    "formatted_address": "313 S Main St, Bushton, KS 67427, USA",
    "lat": 38.5121371,
    "lng": -98.39717710000002,
    "rating": 0,
    "place_id": "ChIJ79-xmvh5o4cRm1t3kYq-k0A",
    "photo": null,
    "name": "Farmer Township Community Library",
    "phone": "(620) 562-3352"
  },
  {
    "id": 42,
    "formatted_address": "120 S Main St, Caldwell, KS 67022, USA",
    "lat": 37.03069,
    "lng": -97.60652800000003,
    "rating": 5,
    "place_id": "ChIJycywu3QIsIcRSyjQ-DALh3I",
    "opening_hours": { "open_now": false },
    "photo": "https://maps.googleapis.com/maps/api/place/js/PhotoService.GetPhoto?1sCmRaAAAANL6UqDKnQQjqw0Xi1OE97hAKGxCrUvaDRCb6cW0V-Kwo4XY5GnbVCZOm6TKR5KX_3Wte1vPNtjoxpovB58awuzISST-g8T0Nnx1U_GL8w-C5eY1516SFA_polun8VItaEhD4dasrXvB5YIFG0-L0zOY9GhTNxGLGlqvB5Q7bb0LNz8CKsdPPeA&3u4000&5m1&2e1&callback=none&key=AIzaSyDpY6WL8JItnEEaReTqil6YNEgvwtSMPgA&token=3190",
    "name": "Caldwell Public Library",
    "phone": "(620) 845-6879"
  },
  {
    "id": 43,
    "formatted_address": "211 W 5th Ave, Caney, KS 67333, USA",
    "lat": 37.0104261,
    "lng": -95.93706050000003,
    "rating": 4.7,
    "place_id": "ChIJK33Cxxplt4cRMT-5DnDGIZA",
    "opening_hours": { "open_now": false },
    "photo": null,
    "name": "Caney City Library",
    "phone": "(620) 879-5341"
  },
  {
    "id": 44,
    "formatted_address": "Canton, KS, USA",
    "lat": 38.3974741,
    "lng": -97.41650529999998,
    "place_id": "ChIJa2vZB25gu4cR9nSdEpy3Jcw",
    "photo": null,
    "name": "Canton Township",
    "phone": "(620) 628-4349"
  },
  {
    "id": 45,
    "formatted_address": "234 Main St, Carbondale, KS 66414, USA",
    "lat": 38.819284,
    "lng": -95.6908459,
    "rating": 5,
    "place_id": "ChIJw7Xnm00gv4cRvUNVwitHE_g",
    "opening_hours": { "open_now": false },
    "photo": null,
    "name": "Carbondale City Library",
    "phone": "(785) 836-7638"
  },
  {
    "id": 46,
    "formatted_address": "802 Locust St, Cawker City, KS 67430, USA",
    "lat": 39.5093279,
    "lng": -98.4315924,
    "rating": 0,
    "place_id": "ChIJyYmk_YKIoocRNd_GyXxiQYk",
    "opening_hours": { "open_now": false },
    "photo": "https://maps.googleapis.com/maps/api/place/js/PhotoService.GetPhoto?1sCmRaAAAAiY_hVQAhEH10TG122KJXhQOhZleWFJ_BDX7P7KDkQ6452vJ_B-AMJbfCuNc6BA9HMInLgodRTZTGxvs01I4W6YuVoMCEOIjtnRm2PMp1OTxvO8mKOjgxPWVyq0TbN1aeEhCE8Twc1MB9uvPmywGE3wN-GhSG-2PXI9WZbTT_s4UyeRshX4tIAA&3u1280&5m1&2e1&callback=none&key=AIzaSyDpY6WL8JItnEEaReTqil6YNEgvwtSMPgA&token=24642",
    "name": "Cawker City Public Library",
    "phone": "(785) 781-4925"
  },
  {
    "id": 47,
    "formatted_address": "606 Cedar St, Cedar Vale, KS 67024, USA",
    "lat": 37.1051327,
    "lng": -96.49830259999999,
    "rating": 4,
    "place_id": "ChIJaX8gy_apsIcRxcyZWj9xJ_E",
    "opening_hours": { "open_now": false },
    "photo": "https://maps.googleapis.com/maps/api/place/js/PhotoService.GetPhoto?1sCmRaAAAATU5HGQ3pluBEhfTOD0w7y3h76dyiGsuYWwJgHEOOwfaJqC95ZPErITwRT20EqIL77fnOvKeSqzZdFSien80UunpUMqgMt1YZJQOPSPCj0XMN2okLJba37UaA2lRwU4I_EhAPOg7Ak8TiVVCm5fRi7p-pGhT73eAJl607fQ98jc9X9VQKlta_-A&3u5312&5m1&2e1&callback=none&key=AIzaSyDpY6WL8JItnEEaReTqil6YNEgvwtSMPgA&token=114139",
    "name": "Cedar Vale Memorial Library",
    "phone": "(620) 758-2598"
  },
  {
    "id": 48,
    "formatted_address": "520 4th St, Centralia, KS 66415, USA",
    "lat": 39.7229004,
    "lng": -96.129795,
    "rating": 5,
    "place_id": "ChIJcy5LxjgZvocRoT4NgrpXYOQ",
    "opening_hours": { "open_now": false },
    "photo": null,
    "name": "Centralia Community Library",
    "phone": "(785) 857-3331"
  },
  {
    "id": 49,
    "formatted_address": "111 N Lincoln Ave, Chanute, KS 66720, USA",
    "lat": 37.68304,
    "lng": -95.4524323,
    "rating": 3.7,
    "place_id": "ChIJ8z7HqzRDuIcRSexHUK79HOo",
    "photo": null,
    "name": "Chanute Public Library",
    "phone": "(620) 431-3820"
  },
  {
    "id": 50,
    "formatted_address": "402 N Marshall St, Chapman, KS 67431, USA",
    "lat": 38.9704276,
    "lng": -97.0195569,
    "rating": 0,
    "place_id": "ChIJfWvxMDpXvIcRSKC5bdK1MH8",
    "opening_hours": { "open_now": false },
    "photo": null,
    "name": "Chapman Public Library",
    "phone": "(785) 922-6548"
  },
  {
    "id": 51,
    "formatted_address": "203 N Main St, Cheney, KS 67025, USA",
    "lat": 37.628079,
    "lng": -97.78155600000002,
    "rating": 5,
    "place_id": "ChIJnwv1Q1LTuocRXBrEY6v_Fc0",
    "opening_hours": { "open_now": false },
    "photo": "https://maps.googleapis.com/maps/api/place/js/PhotoService.GetPhoto?1sCmRaAAAALYjkZC-BZyROv-tZlxPxNyvkQhNigAmBUpElBAu0TS2TbCASCEqWPvQBnc9iys8KnFDzUxo1tMlAU_BdxuEOREPq3L6VtYJea5zsPAhRiL3NzWsXFcAVkH3EjfkiEL0oEhCqtLXqnx0Ai3p5xfFHSghuGhQxeJYQG_ylkEXFf5WDKHdyAm_htA&3u606&5m1&2e1&callback=none&key=AIzaSyDpY6WL8JItnEEaReTqil6YNEgvwtSMPgA&token=58759",
    "name": "Cheney Public Library",
    "phone": "(316) 542-3331"
  },
  {
    "id": 52,
    "formatted_address": "329 E Main St, Cherryvale, KS 67335, USA",
    "lat": 37.2681148,
    "lng": -95.54804209999998,
    "rating": 5,
    "place_id": "ChIJ97Vbe-4luIcRUCceQU59yhE",
    "opening_hours": { "open_now": false },
    "photo": null,
    "name": "Cherryvale Public Library",
    "phone": "(620) 336-3460"
  },
  {
    "id": 53,
    "formatted_address": "312 Maple St, Chetopa, KS 67336, USA",
    "lat": 37.0367638,
    "lng": -95.0867106,
    "rating": 0,
    "place_id": "ChIJX6J_xD39t4cRSmN-cHIq0C4",
    "opening_hours": { "open_now": false },
    "photo": null,
    "name": "Chetopa City Library",
    "phone": "(620) 236-7194"
  },
  {
    "id": 54,
    "formatted_address": "120 N Main St, Cimarron, KS 67835, USA",
    "lat": 37.8076569,
    "lng": -100.34794729999999,
    "rating": 5,
    "place_id": "ChIJmU1pP9hrp4cRJEp2NknYwJU",
    "opening_hours": { "open_now": false },
    "photo": "https://maps.googleapis.com/maps/api/place/js/PhotoService.GetPhoto?1sCmRaAAAAfPvk33ryu_94-0gMj5aU200yFL12ChQhWckoQPfHNCChBMbkec8vJooNl3bxCrfXLaz5Wq5mqx1lWxFKl_l8z59gyLar-qx9hP9CqAOkE3MSx3SSWaaL1_dieEXXSLlMEhChRjgDFUF2TNWQtmNok3PyGhTSiqChYgLMQBoydYpPrunMjiT4Eg&3u853&5m1&2e1&callback=none&key=AIzaSyDpY6WL8JItnEEaReTqil6YNEgvwtSMPgA&token=121719",
    "name": "Cimarron City Library",
    "phone": "(620) 855-3808"
  },
  {
    "id": 55,
    "formatted_address": "120 N Main St, Cimarron, KS 67835, USA",
    "lat": 37.8076569,
    "lng": -100.34794729999999,
    "rating": 5,
    "place_id": "ChIJmU1pP9hrp4cRJEp2NknYwJU",
    "opening_hours": { "open_now": false },
    "photo": "https://maps.googleapis.com/maps/api/place/js/PhotoService.GetPhoto?1sCmRaAAAAfTzoXQSm8tvCcYsuW-Fx8s65HRNtJ0jxlGywMnnXsugUfKWQYsLqF1FntqkrRPAK6MnPhBFPwdtbP6cT2NsGDOhTT6AuDq9pjO3kSp8t-_L29ItkNPIon2z_STVr4y71EhCJPYLWI1oPEu2rrq5il_0pGhSOgl6TIHNLgKUqDP_vmTZWDJxhgQ&3u853&5m1&2e1&callback=none&key=AIzaSyDpY6WL8JItnEEaReTqil6YNEgvwtSMPgA&token=90957",
    "name": "Cimarron City Library",
    "phone": "(316) 855-3808"
  },
  {
    "id": 56,
    "formatted_address": "120 N Main St, Cimarron, KS 67835, USA",
    "lat": 37.8076569,
    "lng": -100.34794729999999,
    "rating": 5,
    "place_id": "ChIJmU1pP9hrp4cRJEp2NknYwJU",
    "opening_hours": { "open_now": false },
    "photo": "https://maps.googleapis.com/maps/api/place/js/PhotoService.GetPhoto?1sCmRaAAAAfTzoXQSm8tvCcYsuW-Fx8s65HRNtJ0jxlGywMnnXsugUfKWQYsLqF1FntqkrRPAK6MnPhBFPwdtbP6cT2NsGDOhTT6AuDq9pjO3kSp8t-_L29ItkNPIon2z_STVr4y71EhCJPYLWI1oPEu2rrq5il_0pGhSOgl6TIHNLgKUqDP_vmTZWDJxhgQ&3u853&5m1&2e1&callback=none&key=AIzaSyDpY6WL8JItnEEaReTqil6YNEgvwtSMPgA&token=90957",
    "name": "Cimarron City Library",
    "phone": "(316) 855-3808"
  },
  {
    "id": 57,
    "formatted_address": "201 N Main St, Goddard, KS 67052, USA",
    "lat": 37.658523,
    "lng": -97.5752195,
    "rating": 5,
    "place_id": "ChIJfczOX4TZuocR4Upmc-PX6rk",
    "opening_hours": { "open_now": false },
    "photo": null,
    "name": "Goddard Public Library",
    "phone": "(316) 794-8771"
  },
  {
    "id": 58,
    "formatted_address": "730 1st Terrace, Lansing, KS 66043, USA",
    "lat": 39.2385217,
    "lng": -94.89907979999998,
    "rating": 4.8,
    "place_id": "ChIJO6EciUl9wIcR5zFqSG8j_aA",
    "opening_hours": { "open_now": false },
    "photo": "https://maps.googleapis.com/maps/api/place/js/PhotoService.GetPhoto?1sCmRaAAAAMKOfLIMpDOziKzKSO81h5jmhiRQ65zfFv1mCAJFXB6689SRt0gfpFdU3PxmUOHlw_gy47WGhjQgOiZ9GOVwEbGZSwdtGaOLdlNHagGLg7CI22r0TOVXAPhwhgh5ziQHoEhAqqIwjZgziLJQRAFLn7_3tGhRtuop7Jdu87s87fgeBFi6t1q_V0A&3u960&5m1&2e1&callback=none&key=AIzaSyDpY6WL8JItnEEaReTqil6YNEgvwtSMPgA&token=5507",
    "name": "Lansing Community Library",
    "phone": "(913) 727-2929"
  },
  {
    "id": 59,
    "formatted_address": "Independent, KS, USA",
    "lat": 38.5707459,
    "lng": -98.55012829999998,
    "place_id": "ChIJW8SJk06co4cRJxmfv-EzeJM",
    "photo": "https://maps.googleapis.com/maps/api/place/js/PhotoService.GetPhoto?1sCmRaAAAA6318Htl5hU8UoENAyo8a-7OkD2SVAN5ORvRSPEHrekqrFGsW0dfxFn76C6A6r2DB3RUaHlKiLaAzGOqUeArUrDzDTLFTcIMa83cv6f8VByvtfFbZ7zH8WLqNIkaXUzNiEhAlqq8xcW4kVOp_Vh0FktbMGhQbZWsYoP4LJHOXSqb-bDS3V19tlg&3u2160&5m1&2e1&callback=none&key=AIzaSyDpY6WL8JItnEEaReTqil6YNEgvwtSMPgA&token=87852",
    "name": "Independent Township",
    "phone": "(620) 587-3488"
  },
  {
    "id": 60,
    "formatted_address": "706 6th St, Clay Center, KS 67432, USA",
    "lat": 39.3764793,
    "lng": -97.12428669999997,
    "rating": 5,
    "place_id": "ChIJFc3sGkYKvYcR4ykR9LH7sa0",
    "opening_hours": { "open_now": false },
    "photo": null,
    "name": "Clay Center Carnegie Library",
    "phone": "(785) 632-3889"
  },
  {
    "id": 61,
    "formatted_address": "109 Ross Ave, Clearwater, KS 67026, USA",
    "lat": 37.5044961,
    "lng": -97.50550980000003,
    "rating": 5,
    "place_id": "ChIJrdhe-erDuocRhSJObACUtbs",
    "opening_hours": { "open_now": false },
    "photo": "https://maps.googleapis.com/maps/api/place/js/PhotoService.GetPhoto?1sCmRaAAAAecgE3aaw4QUxHZmjLVD4VLpbkJ6pEcAh2fFMx37JRq14l5k3BErZLzR40jA3vJzadXLMPzjL_bAQHXzBGPn_xDLuSrfBD-Xho0xfDGII-HL3epZWsAZ3trdfc7nhezF-EhB5ELybPwD_h3P2gFr2xZteGhSyFh08jjl5eMRsNT5BYN_jXkQhaQ&3u4048&5m1&2e1&callback=none&key=AIzaSyDpY6WL8JItnEEaReTqil6YNEgvwtSMPgA&token=22286",
    "name": "Clearwater Public Library",
    "phone": "(620) 584-6474"
  },
  {
    "id": 62,
    "formatted_address": "104 E Parallel St, Clifton, KS 66937, USA",
    "lat": 39.5665504,
    "lng": -97.2800795,
    "rating": 5,
    "place_id": "ChIJaStiP8JvvYcR0CvOCy7qsHk",
    "photo": null,
    "name": "Clifton Public Library",
    "phone": "(785) 455-2222"
  },
  {
    "id": 63,
    "formatted_address": "107 S Green St, Clyde, KS 66938, USA",
    "lat": 39.5908858,
    "lng": -97.39860699999997,
    "rating": 0,
    "place_id": "ChIJo3EsQtJnvYcRZ3v989bqDdo",
    "photo": null,
    "name": "Randolph-Decker Pub. Lib.",
    "phone": "(785) 446-3563"
  },
  {
    "id": 64,
    "formatted_address": "311 W 10th St, Coffeyville, KS 67337, USA",
    "lat": 37.0337324,
    "lng": -95.62012429999999,
    "rating": 3.9,
    "place_id": "ChIJSzutcPaEt4cRgMPRkUZzwOw",
    "opening_hours": { "open_now": false },
    "photo": "https://maps.googleapis.com/maps/api/place/js/PhotoService.GetPhoto?1sCmRaAAAAjAw9RujNLMjx9hNKnoIKG4JpTQFxyqxP5E6P0kObD67Y2U2FcskZspDuO8C-NhuoZxRDxZBRlp7otJKE3xY5sB84iEGisdranGu8HCo7ypADxiNJHwohsQ5h51ZxZoJkEhBEScqal0FruY9r2EY1DH_fGhQNT13t4XCZTceFEYi7Art5bwVRdg&3u2048&5m1&2e1&callback=none&key=AIzaSyDpY6WL8JItnEEaReTqil6YNEgvwtSMPgA&token=117158",
    "name": "Coffeyville Public Library",
    "phone": "(620) 251-1370"
  },
  {
    "id": 65,
    "formatted_address": "375 W 4th St, Colby, KS 67701, USA",
    "lat": 39.3974052,
    "lng": -101.04916320000001,
    "rating": 4.4,
    "place_id": "ChIJDzH18ZXLCocR55o1E8tdaKM",
    "opening_hours": { "open_now": false },
    "photo": null,
    "name": "Colby-Pioneer Memorial Library",
    "phone": "(785) 460-4470"
  },
  {
    "id": 66,
    "formatted_address": "375 W 4th St, Colby, KS 67701, USA",
    "lat": 39.3974052,
    "lng": -101.04916320000001,
    "rating": 4.4,
    "place_id": "ChIJDzH18ZXLCocR55o1E8tdaKM",
    "opening_hours": { "open_now": false },
    "photo": null,
    "name": "Pioneer Memorial Library, Colby",
    "phone": "(913) 462-7563"
  },
  {
    "id": 67,
    "formatted_address": "221 E Main St, Coldwater, KS 67029, USA",
    "lat": 37.2698392,
    "lng": -99.32581010000001,
    "rating": 5,
    "place_id": "ChIJl_ME2ioNpocRzSbHACLYgBU",
    "photo": "https://maps.googleapis.com/maps/api/place/js/PhotoService.GetPhoto?1sCmRaAAAA_coCQyLVEp7046mJdymnV5w1-3wjoI0nI261sqU-kuz8JqC7nZhzRZ4Onp-bEhkvxzXOGztOMaJv_d8y6hjAYqhalWE58WevYvW6pdOTE0hTffRFiS3_lKgSvsDyfE5yEhAE6SObIrK5jGcaq_mB6Gd0GhR9ntAKKv0KP0rquFQRjKENO3722Q&3u4048&5m1&2e1&callback=none&key=AIzaSyDpY6WL8JItnEEaReTqil6YNEgvwtSMPgA&token=35235",
    "name": "Coldwater-Wilmore Regional Library",
    "phone": "(620) 582-2333"
  },
  {
    "id": 68,
    "formatted_address": "Colony, KS 66015, USA",
    "lat": 38.0705406,
    "lng": -95.36642669999998,
    "rating": 0,
    "place_id": "ChIJvSmIShyTuIcRZh1mfyCo9UY",
    "opening_hours": { "open_now": false },
    "photo": null,
    "name": "Colony City Library",
    "phone": "(620) 852-3530"
  },
  {
    "id": 69,
    "formatted_address": "205 N Kansas Ave, Columbus, KS 66725, USA",
    "lat": 37.1721776,
    "lng": -94.84292249999999,
    "rating": 0,
    "place_id": "ChIJg4FfTLcJyIcR5N-VPkYjaeI",
    "opening_hours": { "open_now": false },
    "photo": null,
    "name": "Columbus Public Library",
    "phone": "(620) 429-2086"
  },
  {
    "id": 70,
    "formatted_address": "432 W Colwich Ave, Colwich, KS 67030, USA",
    "lat": 37.7812739,
    "lng": -97.5406461,
    "rating": 5,
    "place_id": "ChIJN64VzNgmu4cREmrJEinjFYU",
    "opening_hours": { "open_now": false },
    "photo": null,
    "name": "Colwich Community Library",
    "phone": "(316) 796-1521"
  },
  {
    "id": 71,
    "formatted_address": "702 Broadway St, Concordia, KS 66901, USA",
    "lat": 39.57020079999999,
    "lng": -97.65955980000001,
    "rating": 4.2,
    "place_id": "ChIJdTKu7tNRvYcRy5EN49QcVNc",
    "opening_hours": { "open_now": false },
    "photo": null,
    "name": "Frank Carlson Library",
    "phone": "(785) 243-2250"
  },
  {
    "id": 72,
    "formatted_address": "210 E Spring Ave, Conway Springs, KS 67031, USA",
    "lat": 37.3904116,
    "lng": -97.64287539999998,
    "rating": 3,
    "place_id": "ChIJpf2slNe3uocRy8jSI-WJzJo",
    "opening_hours": { "open_now": false },
    "photo": "https://maps.googleapis.com/maps/api/place/js/PhotoService.GetPhoto?1sCmRaAAAAwYR3mmVQta09DIr9fjiwP_bZBgXt364sqYyD-_1aAAEqXF56hlRl2FNfu29Nj7k-FPzG11GMkeToStZMu6toumHpAp6Y1a1MYck6BLnCbCulG1Q0_gCfdkbhqhHn8sJ3EhDhFMucdkFGNwE7RrS-W1Z4GhSSA1mL3AGdcRSPgy3JnWvPxw0Xgg&3u3264&5m1&2e1&callback=none&key=AIzaSyDpY6WL8JItnEEaReTqil6YNEgvwtSMPgA&token=33082",
    "name": "Conway Springs City Library",
    "phone": "(620) 456-2859"
  },
  {
    "id": 73,
    "formatted_address": "109 Main St, Copeland, KS 67837, USA",
    "lat": 37.5426643,
    "lng": -100.62953720000002,
    "rating": 0,
    "place_id": "ChIJPUJc3YLVCYcR7zXdIKdrRRY",
    "opening_hours": { "open_now": false },
    "photo": null,
    "name": "Copeland Public Library",
    "phone": "(620) 668-5559"
  },
  {
    "id": 74,
    "formatted_address": "6221 5th St, Corning, KS 66417, USA",
    "lat": 39.6575277,
    "lng": -96.03130879999998,
    "rating": 0,
    "place_id": "ChIJ6QtWaCk9vocRhWDbMV11UyQ",
    "photo": null,
    "name": "Corning City Library",
    "phone": "(785) 868-2755"
  },
  {
    "id": 75,
    "formatted_address": "421 Oak St, Cottonwood Falls, KS 66845, USA",
    "lat": 38.370567,
    "lng": -96.5423806,
    "rating": 5,
    "place_id": "ChIJld66lTb6u4cRJwUsZVS785Q",
    "opening_hours": { "open_now": false },
    "photo": "https://maps.googleapis.com/maps/api/place/js/PhotoService.GetPhoto?1sCmRaAAAAXfi3x3B1O2N6BHt2OLDhPQaRX4xpXxVf14MK1ZrkPoCszSv6o7oB2ektR46D7-TjQZBk6UTKWxci6NKDlkkazelhsGvESX4ecovQnPKGgkGQWxfwgWa6OUvsxUp_0ZyYEhB_ajmehUrKoE6PrlaT4kMBGhSH0D-0_KKyqhTmMW2zvgGifOpUJg&3u1440&5m1&2e1&callback=none&key=AIzaSyDpY6WL8JItnEEaReTqil6YNEgvwtSMPgA&token=51392",
    "name": "Burnley Memorial Library",
    "phone": "(620) 273-8588"
  },
  {
    "id": 76,
    "formatted_address": "421 Oak St, Cottonwood Falls, KS 66845, USA",
    "lat": 38.370567,
    "lng": -96.5423806,
    "rating": 5,
    "place_id": "ChIJld66lTb6u4cRJwUsZVS785Q",
    "opening_hours": { "open_now": false },
    "photo": "https://maps.googleapis.com/maps/api/place/js/PhotoService.GetPhoto?1sCmRaAAAAcgQgHRmHOHaUeQvn7zdLM4ejke685rlKzy7MADh-stdOVSU2ogp7JlVTYqnAfkaGoEbrIX8vdFtb8zK0zNCgyCxS1C6Rz-cLxTOB1HUHpmzzp1YmU9UjDPxrb0Xa2GuMEhDzLSNtoRvjmR1Xppl3d0CAGhT_WPJit-O5qFwVwRDlPuhw9LaUYA&3u1440&5m1&2e1&callback=none&key=AIzaSyDpY6WL8JItnEEaReTqil6YNEgvwtSMPgA&token=18709",
    "name": "Cottonwood Falls-Burnley Memorial",
    "phone": "(620) 273-8588"
  },
  {
    "id": 77,
    "formatted_address": "829 W Main St, Council Grove, KS 66846, USA",
    "lat": 38.6582278,
    "lng": -96.49979710000002,
    "rating": 0,
    "place_id": "ChIJBbA9zV0bvIcRVpxMQhqrsWw",
    "opening_hours": { "open_now": false },
    "photo": "https://maps.googleapis.com/maps/api/place/js/PhotoService.GetPhoto?1sCmRaAAAAiEdsM7X8Q8rG3_POqGyTJp9rmd6eWuum76PV6XY0cut4D0KOZisfrhoQZVwuBrx-1Bn-4sXCVavwIbDHLtS-q7sGlBkoTdD9yc1gssYA9ZS-5wyEz7OchZOmDZWS1z8nEhAJjSG27bLbqHJAxsJ2Je3cGhQsqN44Un7kv-k8Ub71Jc7be9_Vbw&3u541&5m1&2e1&callback=none&key=AIzaSyDpY6WL8JItnEEaReTqil6YNEgvwtSMPgA&token=41648",
    "name": "Council Grove Public Library",
    "phone": "(620) 767-5716"
  },
  {
    "id": 78,
    "formatted_address": "804 Bristol St, Cuba, KS 66940, USA",
    "lat": 39.802485,
    "lng": -97.45380940000001,
    "rating": 0,
    "place_id": "ChIJL5XFDZbgl4cRDQ7a5-KOWBI",
    "photo": null,
    "name": "Hillcrest Library",
    "phone": "(785) 729-3355"
  },
  {
    "id": 79,
    "formatted_address": "105 N Main St, Cunningham, KS 67035, USA",
    "lat": 37.6453369,
    "lng": -98.43286849999998,
    "rating": 0,
    "place_id": "ChIJC3O92rEBpYcRzYhdRWLPEJU",
    "photo": null,
    "name": "Cunningham Public Library",
    "phone": "(620) 298-3163"
  },
  {
    "id": 80,
    "formatted_address": "114 W 2nd St, Delphos, KS 67436, USA",
    "lat": 39.2739871,
    "lng": -97.7655957,
    "rating": 0,
    "place_id": "ChIJpRXEhiEzvYcRQFkb6dAvKO8",
    "photo": null,
    "name": "Delphos Public Library",
    "phone": "(785) 523-4668"
  },
  {
    "id": 81,
    "formatted_address": "1600 E Walnut Grove Rd, Derby, KS 67037, USA",
    "lat": 37.5512472,
    "lng": -97.2469595,
    "rating": 4.4,
    "place_id": "ChIJAzpoAjTwuocRoZRPigXc_FA",
    "opening_hours": { "open_now": false },
    "photo": "https://maps.googleapis.com/maps/api/place/js/PhotoService.GetPhoto?1sCmRaAAAAdopoENemCecBEIFx8L9TFOrqGLilYafDuNcj9nXAwZYiHzr9_xjWrNV0Udg_pXlWoFYKNqwGqoKzmiZf5-bPrfdDXWS3XwUPHRge0bMiV1P0MeOEPXhqrRPUjEPm2OGTEhAJIWm76gvY1AhATZ8elNPEGhQ8VMShZpf8WK6IGltEeLLyg5Bl_w&3u2048&5m1&2e1&callback=none&key=AIzaSyDpY6WL8JItnEEaReTqil6YNEgvwtSMPgA&token=54952",
    "name": "Derby Public Library",
    "phone": "(316) 788-0760"
  },
  {
    "id": 82,
    "formatted_address": "33145 W 83rd St, De Soto, KS 66018, USA",
    "lat": 38.9778762,
    "lng": -94.96970019999998,
    "rating": 4.8,
    "place_id": "ChIJU3Nv7_CbwIcRnBcvXPtTPjA",
    "opening_hours": { "open_now": false },
    "photo": "https://maps.googleapis.com/maps/api/place/js/PhotoService.GetPhoto?1sCmRaAAAALrzCGovnN0dxRmezGSZSEe7MorU4mOKdwB-Co0PIHeUExhUKb01h2D925SNpY_SW0CnSOrCAVsBvXcyXa1wVjryv6f43W54EnIZjHTEwqpD5q2l6qbghfjhHNBttMAQAEhD8oDIylKjwsWhWlUKtElgQGhSIMmeHh2s9Kiy20DCdeG62uRQv9g&3u2048&5m1&2e1&callback=none&key=AIzaSyDpY6WL8JItnEEaReTqil6YNEgvwtSMPgA&token=76927",
    "name": "Johnson County Library, Desoto",
    "phone": "(913) 583-3106"
  },
  {
    "id": 83,
    "formatted_address": "144 S Lane St, Dighton, KS 67839, USA",
    "lat": 38.4813789,
    "lng": -100.46531440000001,
    "rating": 0,
    "place_id": "ChIJK5yvL-GioIcRp7wGDqWj1oA",
    "photo": null,
    "name": "Dighton-Lane County Library",
    "phone": "(620) 397-2808"
  },
  {
    "id": 84,
    "formatted_address": "144 S Lane St, Dighton, KS 67839, USA",
    "lat": 38.4813789,
    "lng": -100.46531440000001,
    "rating": 0,
    "place_id": "ChIJK5yvL-GioIcRp7wGDqWj1oA",
    "photo": null,
    "name": "Lane County Library, Dighton",
    "phone": "(316) 397-5829"
  },
  {
    "id": 85,
    "formatted_address": "1001 N 2nd Ave, Dodge City, KS 67801, USA",
    "lat": 37.7579002,
    "lng": -100.01942389999999,
    "rating": 4.7,
    "place_id": "ChIJmYSyBgwbp4cRVTAqlAmdlC8",
    "opening_hours": { "open_now": false },
    "photo": "https://maps.googleapis.com/maps/api/place/js/PhotoService.GetPhoto?1sCmRaAAAA3vQF93DIIPDgNd4j469gsmP9qSmTLHbOB0YSPw_7w7q1O10jaICKM-uk2bkCQ7Yzp7Yti7ndM33NdzsTYuBH7taKtcNxKwl-GRQtIKhHeRa9l_KicUAwgnEWZciE5YJVEhCjAjtsfXA8-sxeWLpvGB94GhRZjt2GCOrDSZM7VMmY7tYfSd_Q8w&3u2560&5m1&2e1&callback=none&key=AIzaSyDpY6WL8JItnEEaReTqil6YNEgvwtSMPgA&token=77586",
    "name": "Dodge City Public Library",
    "phone": "(620) 225-0248"
  },
  {
    "id": 86,
    "formatted_address": "100 Military Ave Suite 210, Dodge City, KS 67801, USA",
    "lat": 37.7540121,
    "lng": -100.01630180000001,
    "rating": 5,
    "place_id": "ChIJOxZZog0bp4cRcBd5zzXpw7g",
    "opening_hours": { "open_now": false },
    "photo": "https://maps.googleapis.com/maps/api/place/js/PhotoService.GetPhoto?1sCmRaAAAAltGo6eXCZkQNpP3fmmH-yS0IOyZUTO6mDLc2-TDtsHhVB30uZSjkSeABgnKf9G7gGavaJt8cSLpsJNUxVYQ8TEsX2Ses0955qkFcfwgfxOlj_xGFpQWYduQLTKFQjj0GEhDXcJ9vkwTHeDU4P04Hy-g7GhQumj94AZYC8UE7bDyHKfBT6aMdqw&3u818&5m1&2e1&callback=none&key=AIzaSyDpY6WL8JItnEEaReTqil6YNEgvwtSMPgA&token=61030",
    "name": "Southwest Kansas Library System",
    "phone": "(620) 225-1231"
  },
  {
    "id": 87,
    "formatted_address": "319 S Forrest St, Douglass, KS 67039, USA",
    "lat": 37.516707,
    "lng": -97.01659819999998,
    "rating": 5,
    "place_id": "ChIJETBalVJZuocRq55RBWFdc1Q",
    "opening_hours": { "open_now": false },
    "photo": "https://maps.googleapis.com/maps/api/place/js/PhotoService.GetPhoto?1sCmRaAAAA5cJq5SPSNpUnudWF_Xs3-iUd_1XIIJq4keGEvcyGOlcoHcgx2BBr-PsSwOFKteM5a4ZKNPEHNwjzsuVwHS3YeoIiXr0NC33F9e5QT5NLwKSdoUDVAfu2wQM5ygPpjyDSEhCsxfuITuVdSP0Daaqg8QoMGhSycsMXGophW7xXVxNw74S-VRPZrA&3u5312&5m1&2e1&callback=none&key=AIzaSyDpY6WL8JItnEEaReTqil6YNEgvwtSMPgA&token=104881",
    "name": "Douglass Public Library",
    "phone": "(316) 746-2600"
  },
  {
    "id": 88,
    "formatted_address": "504 Morgan Ave, Downs, KS 67437, USA",
    "lat": 39.5003581,
    "lng": -98.54468199999997,
    "rating": 0,
    "place_id": "ChIJ52BqzTBjoocRBQrFwsTFgR0",
    "photo": null,
    "name": "Downs Carnegie Library",
    "phone": "(785) 454-3821"
  },
  {
    "id": 89,
    "formatted_address": "105 Delaware St, Edna, KS 67342, USA",
    "lat": 37.0573773,
    "lng": -95.35910589999997,
    "rating": 5,
    "place_id": "ChIJlbruTwTzt4cRmOOqDjfHzp8",
    "opening_hours": { "open_now": false },
    "photo": null,
    "name": "Edna Public Library",
    "phone": "(620) 922-3470"
  },
  {
    "id": 90,
    "formatted_address": "414 Main St, Effingham, KS 66023, USA",
    "lat": 39.5216273,
    "lng": -95.39789059999998,
    "rating": 0,
    "place_id": "ChIJfzLfeP6_v4cRR-_k2344olQ",
    "opening_hours": { "open_now": true },
    "photo": null,
    "name": "Effingham Community Library",
    "phone": "(913) 833-5881"
  },
  {
    "id": 91,
    "formatted_address": "611 S Washington St, El Dorado, KS 67042, USA",
    "lat": 37.8123085,
    "lng": -96.85443199999997,
    "rating": 4.9,
    "place_id": "ChIJ9ZNB7XKzu4cRU6MLBXGSjT4",
    "opening_hours": { "open_now": false },
    "photo": null,
    "name": "Bradford Memorial Library",
    "phone": "(316) 321-3363"
  },
  {
    "id": 92,
    "formatted_address": "410 Kansas St, Elkhart, KS 67950, USA",
    "lat": 37.0022117,
    "lng": -101.89937580000003,
    "rating": 5,
    "place_id": "ChIJc-VHNJu3CIcRQDNUOGWLN3I",
    "opening_hours": { "open_now": false },
    "photo": null,
    "name": "Elkhart-Morton County Library",
    "phone": "(620) 697-2025"
  },
  {
    "id": 93,
    "formatted_address": "210 N Schiller Ave, Ellinwood, KS 67526, USA",
    "lat": 38.3557419,
    "lng": -98.57762230000003,
    "rating": 0,
    "place_id": "ChIJk4xbX0mHo4cRmuVSbaPJoKk",
    "photo": "https://maps.googleapis.com/maps/api/place/js/PhotoService.GetPhoto?1sCmRaAAAAAYc9m_Jl-yqngTtRQy8v1SFmMsaYt-Ml2uPsvZ63UbuAtvXpb252lhTfXj4FrUjK01VHR7LQDD64-oywozKYEXJ_EbDeTEOJSdfQYadyDcTgyPvoPz7NKouRVmKCg8p9EhDNLvvWKugJdVxWjP2FW_NXGhTmFKTeySlGatvIrQQc4dsZivj7sg&3u2048&5m1&2e1&callback=none&key=AIzaSyDpY6WL8JItnEEaReTqil6YNEgvwtSMPgA&token=19421",
    "name": "Ellinwood School Community Library",
    "phone": "(620) 564-2306"
  },
  {
    "id": 94,
    "formatted_address": "907 Washington St, Ellis, KS 67637, USA",
    "lat": 38.9386239,
    "lng": -99.56001990000004,
    "rating": 5,
    "place_id": "ChIJMRqQIQ6goYcR6OBglGrGdGQ",
    "opening_hours": { "open_now": false },
    "photo": null,
    "name": "Ellis Public Library",
    "phone": "(785) 726-3464"
  },
  {
    "id": 95,
    "formatted_address": "219 N Lincoln Ave, Ellsworth, KS 67439, USA",
    "lat": 38.7293641,
    "lng": -98.22877460000001,
    "rating": 4.3,
    "place_id": "ChIJ5bbtKmUTo4cRobYjmyXgVUo",
    "opening_hours": { "open_now": false },
    "photo": null,
    "name": "J.H. Robbins Memorial Library",
    "phone": "(785) 472-3969"
  },
  {
    "id": 96,
    "formatted_address": "110 E 6th Ave, Emporia, KS 66801, USA",
    "lat": 38.4054003,
    "lng": -96.1784505,
    "rating": 4.2,
    "place_id": "ChIJk35zbZ5OuYcRehJA5g9DuAA",
    "opening_hours": { "open_now": false },
    "photo": "https://maps.googleapis.com/maps/api/place/js/PhotoService.GetPhoto?1sCmRaAAAAFP29hbsmUo_vfof2yjRNThbf9OBMsE95XF_E5aLE1nymWEigi10R1RiL1bsMeYkIaNsAjsi6jlT7ojYznDaXAy1HTgCxMpdFsESZj0ukdvvO1pFumR2HlWEYCfzxQhpGEhD2IOPk82yWMImbRe82zhhdGhTE7GBciNkKV_A4aWRE0FlaZhokvw&3u4272&5m1&2e1&callback=none&key=AIzaSyDpY6WL8JItnEEaReTqil6YNEgvwtSMPgA&token=26438",
    "name": "Emporia Public Library",
    "phone": "(620) 340-6462"
  },
  {
    "id": 97,
    "formatted_address": "202 S Factory, Enterprise, KS 67441, USA",
    "lat": 38.9039449,
    "lng": -97.11733190000001,
    "rating": 0,
    "place_id": "ChIJCT81B7f3vIcREiOZMe9FNe4",
    "opening_hours": { "open_now": false },
    "photo": null,
    "name": "Enterprise Public Library",
    "phone": "(785) 263-8351"
  },
  {
    "id": 98,
    "formatted_address": "14 E 9th St, Eudora, KS 66025, USA",
    "lat": 38.9437784,
    "lng": -95.09818359999997,
    "rating": 4.8,
    "place_id": "ChIJgyzpmp5hv4cRRXKCTgnpzS0",
    "opening_hours": { "open_now": false },
    "photo": "https://maps.googleapis.com/maps/api/place/js/PhotoService.GetPhoto?1sCmRaAAAAQpzSralTMJhhsy6KDpWfhjjAlobYGG9nQlEvrgA5Gt75-SdYTG0SvT386dLgxipIF5D3IkyMquWRif6_fcDIh-ejU_oRWoohZfF6KiajBafNiHsh179SbHFpY1r4-1d4EhDhiULPPi38jsZarY2eRrBIGhSASXHtxxEWovMZ_Nr6Dmikwrg_iw&3u1137&5m1&2e1&callback=none&key=AIzaSyDpY6WL8JItnEEaReTqil6YNEgvwtSMPgA&token=83725",
    "name": "Eudora Public Library",
    "phone": "(785) 542-2496"
  },
  {
    "id": 99,
    "formatted_address": "606 N Main St, Eureka, KS 67045, USA",
    "lat": 37.824883,
    "lng": -96.2937336,
    "rating": 5,
    "place_id": "ChIJgUO7GpF4uYcRAtuhRfv6-yo",
    "opening_hours": { "open_now": false },
    "photo": "https://maps.googleapis.com/maps/api/place/js/PhotoService.GetPhoto?1sCmRaAAAAaC-x_nfTpKBqVChbktTazkkEBz3YgKx_eyD4BRH0UfRWlwQ55hkuM17bR9J8Yt8W-ZL8NPUSV4yDY7YsGc9bmEDfSBLiRfBY1UQSRzR113P14AcKieK4Vdkp4gzrjpLKEhD7R5h8b7ymMeYa4VYckcruGhRGdeoKh1KNinrCS5OgwXI4Z1zp7w&3u1296&5m1&2e1&callback=none&key=AIzaSyDpY6WL8JItnEEaReTqil6YNEgvwtSMPgA&token=49144",
    "name": "Eureka Public Library",
    "phone": "(620) 583-6222"
  },
  {
    "id": 100,
    "formatted_address": "640 Main St, Everest, KS 66424, USA",
    "lat": 39.6775625,
    "lng": -95.42677279999998,
    "rating": 0,
    "place_id": "ChIJ571JJ9vCv4cRcl4zdVwVRTQ",
    "photo": null,
    "name": "Barnes Reading Room",
    "phone": "(785) 548-7733"
  },
  {
    "id": 101,
    "formatted_address": "314 Merchants Ave, Fall River, KS 67047, USA",
    "lat": 37.6094795,
    "lng": -96.02831900000001,
    "rating": 0,
    "place_id": "ChIJn7S-qau9uYcR0YSoHy4CX1A",
    "opening_hours": { "open_now": false },
    "photo": null,
    "name": "Fall River Public Library",
    "phone": "(620) 658-4973"
  },
  {
    "id": 102,
    "formatted_address": "710 E 8th St, Ford, KS 67842, USA",
    "lat": 37.6365554,
    "lng": -99.74916350000001,
    "rating": 1,
    "place_id": "ChIJIxh2Rr75pocRS4oxMzd6MgM",
    "photo": null,
    "name": "Ford City Library",
    "phone": "(620) 369-2820"
  },
  {
    "id": 103,
    "formatted_address": "250 Gibbons Ave, Fort Leavenworth, KS 66027, USA",
    "lat": 39.346528,
    "lng": -94.91606000000002,
    "rating": 4.8,
    "place_id": "ChIJPYqAced6wIcRo8wPGIbP7_o",
    "opening_hours": { "open_now": true },
    "photo": "https://maps.googleapis.com/maps/api/place/js/PhotoService.GetPhoto?1sCmRaAAAArxqQYT_qyXx42D36dgAk0vfX-7rRh-dZHsg5QhGLCJmzylk_EpkIqD60nz-M6eZeXJclHvFNQw6UzwW4EbpqDwzxziNM9Fhh4Jy6vof7yOa8MJ8YhzvddpJ_A6T7Owq1EhDJKqPJpU4jEqLvw9P8widEGhSUskhfQcaT_z8udKneQ1h5E2mr3w&3u1457&5m1&2e1&callback=none&key=AIzaSyDpY6WL8JItnEEaReTqil6YNEgvwtSMPgA&token=125657",
    "name": "Combined Arms Research Library",
    "phone": "(913) 758-3053"
  },
  {
    "id": 104,
    "formatted_address": "201 S National Ave, Fort Scott, KS 66701, USA",
    "lat": 37.8396534,
    "lng": -94.70697569999999,
    "rating": 5,
    "place_id": "ChIJH2Q-gcqhx4cRa1GF-i_FnoI",
    "opening_hours": { "open_now": false },
    "photo": "https://maps.googleapis.com/maps/api/place/js/PhotoService.GetPhoto?1sCmRaAAAAISbjc1Q6cLrTG0peAy8N7LzMwE-ATwuPr8UMXRDaThYSvhvLWV26aq-93-nPZrPWutGgej-96tdE4kPNAT44HIkt1fU4KNX-1SqAuFFab7QiA97db8Ls6dn2pcRLBp5XEhBC5m54uNGESdhCFWksIrrgGhRd0Tkj52ucIk-6RatIgM4rc_2Zcw&3u4896&5m1&2e1&callback=none&key=AIzaSyDpY6WL8JItnEEaReTqil6YNEgvwtSMPgA&token=29998",
    "name": "Fort Scott Public Library",
    "phone": "(620) 223-2882"
  },
  {
    "id": 105,
    "formatted_address": "510 Main St, Fowler, KS 67844, USA",
    "lat": 37.3820473,
    "lng": -100.19549840000002,
    "rating": 0,
    "place_id": "ChIJw_Vkgb35pocRudmpJTmuVhY",
    "photo": null,
    "name": "Fowler Public Library",
    "phone": "(620) 646-5550"
  },
  {
    "id": 106,
    "formatted_address": "104 E 2nd St, Frankfort, KS 66427, USA",
    "lat": 39.702253,
    "lng": -96.4185794,
    "rating": 0,
    "place_id": "ChIJC6QpWe39vYcR3DuKqpIJWcQ",
    "photo": null,
    "name": "Frankfort City Library",
    "phone": "(785) 292-4320"
  },
  {
    "id": 107,
    "formatted_address": "807 Jefferson St, Fredonia, KS 66736, USA",
    "lat": 37.5326657,
    "lng": -95.82454080000002,
    "rating": 5,
    "place_id": "ChIJ8bNZVWO2uYcRnI2BSszikes",
    "opening_hours": { "open_now": false },
    "photo": null,
    "name": "Fredonia Public Library",
    "phone": "(620) 378-2863"
  },
  {
    "id": 108,
    "formatted_address": "217 W 7th St, Galena, KS 66739, USA",
    "lat": 37.0756905,
    "lng": -94.6410454,
    "rating": 5,
    "place_id": "ChIJJXeWeoFxyIcRrlYolSlCZmI",
    "opening_hours": { "open_now": false },
    "photo": null,
    "name": "Galena Public Library",
    "phone": "(620) 793-5132"
  },
  {
    "id": 109,
    "formatted_address": "605 E Walnut St, Garden City, KS 67846, USA",
    "lat": 37.9708929,
    "lng": -100.86515700000001,
    "rating": 5,
    "place_id": "ChIJ5cxd1CLuCYcRvcwfiFUqTm8",
    "opening_hours": { "open_now": false },
    "photo": "https://maps.googleapis.com/maps/api/place/js/PhotoService.GetPhoto?1sCmRaAAAAROoe___ynWOM03E1IWU9vV4lkRs_H8ngxgFiSGeklj8bLiMS43DnWlXjPX1I9ASeWGvIkWBTSlP05VYQvtGUbDhYcqo6aZwOPNFuWWbQ7sTq5uqbHxs7yhdu-zR6U0XjEhDzHaQtmA_EwRGVXS7rcRpLGhQ7DZYW5mI9nj3PECi2FPCU6N8czQ&3u1350&5m1&2e1&callback=none&key=AIzaSyDpY6WL8JItnEEaReTqil6YNEgvwtSMPgA&token=116128",
    "name": "Finney County Public Library",
    "phone": "(620) 272-3680"
  },
  {
    "id": 110,
    "formatted_address": "421 Ave B, Garden Plain, KS 67050, USA",
    "lat": 37.658385,
    "lng": -97.68489599999998,
    "rating": 0,
    "place_id": "ChIJBRnpdrvWuocRNaD5PmwyEWw",
    "opening_hours": { "open_now": false },
    "photo": null,
    "name": "Garden Plain Community Library",
    "phone": "(316) 535-2990"
  },
  {
    "id": 111,
    "formatted_address": "137 E Shawnee St, Gardner, KS 66030, USA",
    "lat": 38.8116436,
    "lng": -94.9254052,
    "rating": 4.7,
    "place_id": "ChIJNUCNDXCjwIcRxvsUO9Y1yZY",
    "opening_hours": { "open_now": false },
    "photo": "https://maps.googleapis.com/maps/api/place/js/PhotoService.GetPhoto?1sCmRaAAAAPIf8J0Z_IJM8UdLiG5Nm8UPJjGLcls2GVZPOMyOfYXOKLhZ0hrQBksTni267GQSpzRrZiXV2eqduqjbsB6tQVCDTOr9meLZ7E0yKOCvXRgv0KYr2iuiWL-9O3ZyA9I9SEhD0z9H1aZq6hUJ94rdgOZVcGhRez8RcgqQZ0YMacOwSerMHc3H6Iw&3u2048&5m1&2e1&callback=none&key=AIzaSyDpY6WL8JItnEEaReTqil6YNEgvwtSMPgA&token=55293",
    "name": "Johnson County Library, Gardner",
    "phone": "(913) 856-7223"
  },
  {
    "id": 112,
    "formatted_address": "125 W 4th Ave, Garnett, KS 66032, USA",
    "lat": 38.2812524,
    "lng": -95.24327340000002,
    "rating": 4.7,
    "place_id": "ChIJOeipLqG8uIcRP2V2GsgtLwE",
    "opening_hours": { "open_now": false },
    "photo": null,
    "name": "Garnett Public Library",
    "phone": "(785) 448-3388"
  },
  {
    "id": 113,
    "formatted_address": "509 Main St, Gaylord, KS 67638, USA",
    "lat": 39.6466131,
    "lng": -98.84615329999997,
    "rating": 5,
    "place_id": "ChIJ3ZLONAagmIcRuwAc-D_hTig",
    "photo": null,
    "name": "Gaylord City Library",
    "phone": "(785) 697-2650"
  },
  {
    "id": 114,
    "formatted_address": "725 Main St, Geneseo, KS 67444, USA",
    "lat": 38.5162713,
    "lng": -98.15652419999998,
    "rating": 0,
    "place_id": "ChIJZ7lXEMBno4cRb2PqIOAEg-s",
    "opening_hours": { "open_now": false },
    "photo": null,
    "name": "Geneseo Public Library",
    "phone": "(620) 824-6140"
  },
  {
    "id": 115,
    "formatted_address": "128 W Prairie St, Girard, KS 66743, USA",
    "lat": 37.5095492,
    "lng": -94.84490900000003,
    "rating": 4.8,
    "place_id": "ChIJdUNtG-Xsx4cRL8Sfej_qLjM",
    "opening_hours": { "open_now": false },
    "photo": null,
    "name": "Girard Public Library",
    "phone": "(620) 724-4317"
  },
  {
    "id": 116,
    "formatted_address": "206 E Main St, Glasco, KS 67445, USA",
    "lat": 39.3612737,
    "lng": -97.83815070000003,
    "rating": 0,
    "place_id": "ChIJzzqillvKoocRCW4ai8wcqzU",
    "opening_hours": { "open_now": false },
    "photo": null,
    "name": "Glasco City Library",
    "phone": "(785) 568-2313"
  },
  {
    "id": 117,
    "formatted_address": "113 Mill St, Glen Elder, KS 67446, USA",
    "lat": 39.4987156,
    "lng": -98.30858769999998,
    "rating": 0,
    "place_id": "ChIJX83sBiCQoocRJG_LVRjFykI",
    "photo": null,
    "name": "Glen Elder Library",
    "phone": "(785) 545-3632"
  },
  {
    "id": 118,
    "formatted_address": "101 S Cedar St, Goessel, KS 67053, USA",
    "lat": 38.2455571,
    "lng": -97.34613130000002,
    "rating": 0,
    "place_id": "ChIJM6FE9lFvu4cRNWfm5MJe54M",
    "opening_hours": { "open_now": false },
    "photo": "https://maps.googleapis.com/maps/api/place/js/PhotoService.GetPhoto?1sCmRaAAAAph0XsjXb5yMvsrAlUR_7uFYOg44VGZo_YPtca2tuq7youVbhbUdRvueVRwx207AEFKEDi_ReQCF4W0AAiwUFHtmburQSBy4hQkoMzx91KsfwNXiOebt7_c0GMl4dIVEPEhDUa-eIPJ4jxMPr9ICCyridGhSVPQEJi2MuwZqOlLPYsOT2rG-37g&3u4032&5m1&2e1&callback=none&key=AIzaSyDpY6WL8JItnEEaReTqil6YNEgvwtSMPgA&token=75036",
    "name": "Goessel Public Library",
    "phone": "(620) 367-8440"
  },
  {
    "id": 119,
    "formatted_address": "812 Broadway, Goodland, KS 67735, USA",
    "lat": 39.350818,
    "lng": -101.71075189999999,
    "rating": 4.7,
    "place_id": "ChIJtWfPBIFKC4cRmG_K1epd82o",
    "opening_hours": { "open_now": false },
    "photo": null,
    "name": "Goodland Public Library",
    "phone": "(785) 899-5461"
  },
  {
    "id": 120,
    "formatted_address": "519 Broad St, Gove City, KS 67736, USA",
    "lat": 38.960029,
    "lng": -100.48787729999998,
    "rating": 0,
    "place_id": "ChIJt20-TqZ7oIcRQ2jhOvFQ2mY",
    "photo": null,
    "name": "Gove City Library",
    "phone": "(785) 938-2242"
  },
  {
    "id": 121,
    "formatted_address": "242 Main St, Grainfield, KS 67737, USA",
    "lat": 39.1127553,
    "lng": -100.46558629999998,
    "rating": 0,
    "place_id": "ChIJ25I2gj5yoIcRlMyYmfZwRg8",
    "opening_hours": { "open_now": false },
    "photo": null,
    "name": "Grainfield City Library",
    "phone": "(785) 673-4770"
  },
  {
    "id": 122,
    "formatted_address": "1409 Williams St, Great Bend, KS 67530, USA",
    "lat": 38.3658481,
    "lng": -98.76717020000001,
    "rating": 0,
    "place_id": "ChIJ__5iwjSKo4cRROOLd_sodJg",
    "photo": "https://maps.googleapis.com/maps/api/place/js/PhotoService.GetPhoto?1sCmRaAAAAPfBXlPm3buBOUqeHDSx0aivG6gsAHSdSRhxvWZ2qtrDa7VvdZEPJa0rnpiYk_BIy9_K1VuFSOfUug3t5uxy3NVE9D86mn5Um3dvdOR9QxYqhE9iHtEAYnwY-715XXsEXEhBy3ejspah8CwjWH-u_zf8UGhQCIMidGcl_VzTit3vnVXu04x9DjQ&3u2048&5m1&2e1&callback=none&key=AIzaSyDpY6WL8JItnEEaReTqil6YNEgvwtSMPgA&token=126650",
    "name": "Central Kansas Library System",
    "phone": "(620) 792-4865"
  },
  {
    "id": 123,
    "formatted_address": "1409 Williams St, Great Bend, KS 67530, USA",
    "lat": 38.3659195,
    "lng": -98.76718069999998,
    "rating": 4.9,
    "place_id": "ChIJ__5iwjSKo4cRzjG2TZ-DlYM",
    "opening_hours": { "open_now": false },
    "photo": null,
    "name": "Great Bend Public Library",
    "phone": "(620) 792-2409"
  },
  {
    "id": 124,
    "formatted_address": "205 S Main St, Grenola, KS 67346, USA",
    "lat": 37.3466808,
    "lng": -96.4495642,
    "rating": 0,
    "place_id": "ChIJ8fcFXK0duocRG6IR1xT87Ik",
    "opening_hours": { "open_now": false },
    "photo": null,
    "name": "Grenola Public",
    "phone": "(620) 358-3707"
  },
  {
    "id": 125,
    "formatted_address": "95 S Adams St, Grinnell, KS 67738, USA",
    "lat": 39.1257938,
    "lng": -100.6290368,
    "rating": 5,
    "place_id": "ChIJE6OWDS2eCocRIjRveOE4r4k",
    "photo": null,
    "name": "Grinnell-Moore Family Library",
    "phone": "(785) 824-3885"
  },
  {
    "id": 126,
    "formatted_address": "521 Maple St, Gypsum, KS 67448, USA",
    "lat": 38.7047416,
    "lng": -97.42738029999998,
    "rating": 0,
    "place_id": "ChIJpQQSqoSVvIcRhfWQ5rF_zBE",
    "photo": null,
    "name": "Gypsum Community Library",
    "phone": "(785) 536-4319"
  },
  {
    "id": 127,
    "formatted_address": "264 Main St, Halstead, KS 67056, USA",
    "lat": 38.003323,
    "lng": -97.505581,
    "rating": 4.8,
    "place_id": "ChIJuZosK70-u4cR32MtWgwZjq8",
    "photo": "https://maps.googleapis.com/maps/api/place/js/PhotoService.GetPhoto?1sCmRaAAAA_Gd735SMzinZfJzOkd7uhJux6fPc_bh9WMmiur5J7_CApjwViGEFC4lK7wj64JE8U5IdT1aOo-Kud4CgktEHjIesXiZxLqJ0HImy-OvzSrH9d0ChYzCnfy33nZJMB6BnEhAv9q-v1th3gnEw0lX0IZwiGhTsmm3gsF8FcWre7MC4ew1gnp2CQQ&3u4048&5m1&2e1&callback=none&key=AIzaSyDpY6WL8JItnEEaReTqil6YNEgvwtSMPgA&token=91982",
    "name": "Halstead Public Library",
    "phone": "(316) 835-2170"
  },
  {
    "id": 128,
    "formatted_address": "21 Main St, Hamilton, KS 66853, USA",
    "lat": 37.97936929999999,
    "lng": -96.16341590000002,
    "rating": 0,
    "place_id": "ChIJYcwkGftxuYcRuehTZNyq0SE",
    "opening_hours": { "open_now": false },
    "photo": null,
    "name": "Hamilton City Library",
    "phone": "(620) 678-3646"
  },
  {
    "id": 129,
    "formatted_address": "209 N East St, Hanover, KS 66945, USA",
    "lat": 39.8928299,
    "lng": -96.87486480000001,
    "rating": 0,
    "place_id": "ChIJo8C7U1IklocRg32hhaA22eU",
    "photo": null,
    "name": "Hanover Public",
    "phone": "(785) 337-2424"
  },
  {
    "id": 130,
    "formatted_address": "105 Logan St, Hanston, KS 67849, USA",
    "lat": 38.1227662,
    "lng": -99.71454970000002,
    "rating": 5,
    "place_id": "ChIJhbemTtLPpocRHL-DC8DcBcw",
    "photo": "https://maps.googleapis.com/maps/api/place/js/PhotoService.GetPhoto?1sCmRaAAAAFcBUxUWrje4EZrLt6Tx1sa_o9oh74w1h3gFWPtyec0bUGST6qQXxMOGvL82Gsmjxi-sO0moxfdMlGLJBk21LdVJpCztcRDVWTuNTcPahEEjjTGYGy6jAzHmMjLBRfWvXEhCxQQOHjPhjE5pg4zqZAD2iGhSQ8Bc7aSysXP0icxLKsMgVHlrRFw&3u4032&5m1&2e1&callback=none&key=AIzaSyDpY6WL8JItnEEaReTqil6YNEgvwtSMPgA&token=15464",
    "name": "Hanston City Library",
    "phone": "(620) 623-2798"
  },
  {
    "id": 131,
    "formatted_address": "102 Central Ave, Hardtner, KS 67057, USA",
    "lat": 37.0140184,
    "lng": -98.64860090000002,
    "rating": 0,
    "place_id": "ChIJSQNoX8WHpYcR8BecT79LmKk",
    "opening_hours": { "open_now": false },
    "photo": null,
    "name": "Hardtner Public Library",
    "phone": "(620) 296-4586"
  },
  {
    "id": 132,
    "formatted_address": "708 W 14th St, Harper, KS 67058, USA",
    "lat": 37.2832762,
    "lng": -98.0332153,
    "rating": 3,
    "place_id": "ChIJI2-Qq6dGpYcRkrjY-LZNfEs",
    "opening_hours": { "open_now": false },
    "photo": null,
    "name": "Harper Public Library",
    "phone": "(620) 896-2959"
  },
  {
    "id": 133,
    "formatted_address": "224 Commercial St, Hartford, KS 66854, USA",
    "lat": 38.3085893,
    "lng": -95.95731189999998,
    "rating": 5,
    "place_id": "ChIJKRnpREE6uYcRmuTzLTyD1I4",
    "opening_hours": { "open_now": false },
    "photo": null,
    "name": "Hartford-Elmendaro Township",
    "phone": "(620) 392-5518"
  },
  {
    "id": 134,
    "formatted_address": "121 N Kansas St, Haven, KS 67543, USA",
    "lat": 37.9019,
    "lng": -97.78309999999999,
    "rating": 4.8,
    "place_id": "ChIJBfEdjrIyu4cR9o3LfBnvr3I",
    "opening_hours": { "open_now": false },
    "photo": "https://maps.googleapis.com/maps/api/place/js/PhotoService.GetPhoto?1sCmRaAAAAfwSZ95Rpb0qnRi3vuiRdpuAH8ARUz65ZUKGLPvqpC281jfn5mZjVbDjUvHre6Kdd0S-Rf4Zg3wgEdm5DpQV6LrjYTf8O2qev13MDHgZQfM5VyEQLQJkPDxw3pDy11agZEhAe7ClQRiAm8G2IleD4v_kXGhQkIbrlInKvRUn5A2gehry2twRKtQ&3u960&5m1&2e1&callback=none&key=AIzaSyDpY6WL8JItnEEaReTqil6YNEgvwtSMPgA&token=49115",
    "name": "Haven Public Library",
    "phone": "(620) 465-3524"
  },
  {
    "id": 135,
    "formatted_address": "320 S Main St, Greensburg, KS 67054, USA",
    "lat": 37.6032375,
    "lng": -99.29255069999999,
    "rating": 5,
    "place_id": "ChIJb8c6B_F9pocRvWs41kG19A4",
    "opening_hours": { "open_now": false },
    "photo": null,
    "name": "Kiowa County Library",
    "phone": "(620) 862-5350"
  },
  {
    "id": 136,
    "formatted_address": "1205 Main St, Hays, KS 67601, USA",
    "lat": 38.8731766,
    "lng": -99.33007190000001,
    "rating": 4.9,
    "place_id": "ChIJY8TX7IR5oYcRcsz6aq4Jjl4",
    "opening_hours": { "open_now": false },
    "photo": "https://maps.googleapis.com/maps/api/place/js/PhotoService.GetPhoto?1sCmRaAAAAvmQO24m047eQC-wZ2ZC--qfsw2j52MsZAPwNDvWtTFak1r_vF7ZFJBdvdDR2XaHwuquryrdCQcdqPJQcA4QxuLsNeu3MTEXm1dAJzJjqp1aXMWVOe-GNhO4wSt01hyNuEhDDooUz4d5akrtI_DGkzUIoGhQsrZebrEsRvuOBGBEONFd2M6jcZQ&3u1752&5m1&2e1&callback=none&key=AIzaSyDpY6WL8JItnEEaReTqil6YNEgvwtSMPgA&token=98086",
    "name": "Hays Public Library",
    "phone": "(785) 625-9014"
  },
  {
    "id": 137,
    "formatted_address": "210 Hays Ave, Haysville, KS 67060, USA",
    "lat": 37.5629998,
    "lng": -97.3503796,
    "rating": 5,
    "place_id": "ChIJ9ejuabPouocRecQXBtnHBsQ",
    "opening_hours": { "open_now": false },
    "photo": null,
    "name": "Haysville Community Library",
    "phone": "(316) 524-5242"
  },
  {
    "id": 138,
    "formatted_address": "105 N Prairie Ave, Hepler, KS 66746, USA",
    "lat": 37.6598057,
    "lng": -94.97011950000001,
    "rating": 0,
    "place_id": "ChIJ-xpQXdaOx4cR6Clspm-Z6tE",
    "opening_hours": { "open_now": false },
    "photo": null,
    "name": "Hepler City Library",
    "phone": "(620) 368-4379"
  },
  {
    "id": 139,
    "formatted_address": "102 S Broadway, Herington, KS 67449, USA",
    "lat": 38.6697316,
    "lng": -96.9433065,
    "rating": 5,
    "place_id": "ChIJoW2snr1lvIcRwZUYPLE3Qsw",
    "opening_hours": { "open_now": false },
    "photo": null,
    "name": "Herington Public Library",
    "phone": "(785) 258-2011"
  },
  {
    "id": 140,
    "formatted_address": "300 N Main St, Hesston, KS 67062, USA",
    "lat": 38.140904,
    "lng": -97.43112400000001,
    "rating": 4,
    "place_id": "ChIJdTjVcXFqu4cReWTP5EzHB-k",
    "opening_hours": { "open_now": false },
    "photo": "https://maps.googleapis.com/maps/api/place/js/PhotoService.GetPhoto?1sCmRaAAAAFCUyiuI4XDnPtCCeL5maCTL1D90RLWfaQ_7b9pUNtYKuOMRib8XqJwj7n2Ma_XrT8IZk1ZP9Ek4QJ7Q95SQkzN0149Pj_lhDeXIHe2i6BZ-UD2wjueR1xcyncxQOLAo6EhC6TmarrQzQxKoIYbyuMK0OGhTdSu6WTFfOvFQrUSApmO-8wpzpBA&3u4608&5m1&2e1&callback=none&key=AIzaSyDpY6WL8JItnEEaReTqil6YNEgvwtSMPgA&token=69726",
    "name": "Hesston Public Library",
    "phone": "(620) 327-4666"
  },
  {
    "id": 141,
    "formatted_address": "431 Oregon St, Hiawatha, KS 66434, USA",
    "lat": 39.8526009,
    "lng": -95.5335283,
    "rating": 5,
    "place_id": "ChIJnaEW95xilYcR2slL1BrAbTg",
    "opening_hours": { "open_now": false },
    "photo": null,
    "name": "Hiawatha-Morrill Public Library",
    "phone": "(785) 742-3831"
  },
  {
    "id": 142,
    "formatted_address": "414 N West St, Hill City, KS 67642, USA",
    "lat": 39.3681747,
    "lng": -99.8403624,
    "rating": 5,
    "place_id": "ChIJdWZ3s7DNoYcRc7FEHl7ici4",
    "opening_hours": { "open_now": false },
    "photo": null,
    "name": "Graham County Public Library",
    "phone": "(785) 421-2722"
  },
  {
    "id": 143,
    "formatted_address": "120 E Grand Ave, Hillsboro, KS 67063, USA",
    "lat": 38.353482,
    "lng": -97.20345299999997,
    "rating": 3.7,
    "place_id": "ChIJW1W3i3N8u4cRSDXz4R0_2Vk",
    "opening_hours": { "open_now": false },
    "photo": null,
    "name": "Hillsboro Public Library",
    "phone": "(620) 947-3827"
  },
  {
    "id": 144,
    "formatted_address": "169 S Walnut St, Hoisington, KS 67544, USA",
    "lat": 38.5132646,
    "lng": -98.77627910000001,
    "rating": 4.8,
    "place_id": "ChIJ9d1sG0KSo4cRB5I9kX93Rjk",
    "opening_hours": { "open_now": false },
    "photo": "https://maps.googleapis.com/maps/api/place/js/PhotoService.GetPhoto?1sCmRaAAAAz_868ittFylnJ1f-aL8ishO8xx_8IOVsZARGAzXRF5l-j742uxy8FLZIwhJ0JiSmNTWIKwTJEmqn3yvT_UWN3xvPsR9scZyFMY1m9iP8dDwwjSSb8RbbaZo5i2F-S0D_EhAfmFW2Wo8UktE_clxNqp7GGhQ3HGO9WyeNvwUOZFllMtwHYDQZXA&3u2906&5m1&2e1&callback=none&key=AIzaSyDpY6WL8JItnEEaReTqil6YNEgvwtSMPgA&token=70940",
    "name": "Hoisington Public Library",
    "phone": "(620) 653-4128"
  },
  {
    "id": 145,
    "formatted_address": "420 W 4th St, Holton, KS 66436, USA",
    "lat": 39.463634,
    "lng": -95.74014399999999,
    "rating": 4.7,
    "place_id": "ChIJz5ddSC9LvocRTjndvHM9SKc",
    "opening_hours": { "open_now": false },
    "photo": "https://maps.googleapis.com/maps/api/place/js/PhotoService.GetPhoto?1sCmRaAAAAWHcC2PhVwL0P3hkVqddUfSru1BqI4qSlO9vcKTVRG_q8w398uJKbcQTuVrp0-gwJUhD6dQA3eMzgCoVi7JMHFEdMyvexkEKtPUaxMjRN5qa2KRqJ3jnGrdEwZlw9Tx40EhDMdqTj0oN6QgiS_pKwohxOGhQrBHVh1rO4YPYEdY6IVTP9PTx3KQ&3u1024&5m1&2e1&callback=none&key=AIzaSyDpY6WL8JItnEEaReTqil6YNEgvwtSMPgA&token=58325",
    "name": "Beck-Bookman Library",
    "phone": "(785) 364-3532"
  },
  {
    "id": 146,
    "formatted_address": "216 N Main St, Hope, KS 67451, USA",
    "lat": 38.6909113,
    "lng": -97.07790069999999,
    "rating": 5,
    "place_id": "ChIJq08_-h1ivIcRs3uAoc5LIIQ",
    "opening_hours": { "open_now": false },
    "photo": null,
    "name": "Hope Community Library",
    "phone": "(785) 366-7219"
  },
  {
    "id": 147,
    "formatted_address": "809 1st Ave E, Horton, KS 66439, USA",
    "lat": 39.6602752,
    "lng": -95.5261079,
    "rating": 5,
    "place_id": "ChIJlS9kWRnFv4cRCPrc9LUhDHs",
    "opening_hours": { "open_now": false },
    "photo": "https://maps.googleapis.com/maps/api/place/js/PhotoService.GetPhoto?1sCmRaAAAA34EL-zn5LaM31em0HS637mKDwfvh2ZbgnHdqpvZpGnCgcTWX86kf8pUrVUl6rGKWlT-vaexeRz2or8BaZoHCNYwsXFNEozNxnveJcdkj8rOXdubVxL_K6l2qVonetM1BEhARrfGGKbOT1jQ2zrL0E_LOGhSeqTWXHyVfGILmmcDghFWoyTNlUw&3u1536&5m1&2e1&callback=none&key=AIzaSyDpY6WL8JItnEEaReTqil6YNEgvwtSMPgA&token=43886",
    "name": "Horton Public Library",
    "phone": "(785) 486-3326"
  },
  {
    "id": 148,
    "formatted_address": "126 S Wabash Ave, Howard, KS 67349, USA",
    "lat": 37.4684182,
    "lng": -96.26385629999999,
    "rating": 4,
    "place_id": "ChIJf-o8KMnyuYcRaK_CuQ7-kkY",
    "opening_hours": { "open_now": false },
    "photo": null,
    "name": "Howard City Library",
    "phone": "(630) 374-2890"
  },
  {
    "id": 149,
    "formatted_address": "801 Royal Ave, Hoxie, KS 67740, USA",
    "lat": 39.3550265,
    "lng": -100.44313649999998,
    "rating": 0,
    "place_id": "ChIJsTVMTlIFoIcRTSxScpYjPY4",
    "photo": null,
    "name": "Sheridan County Public Library",
    "phone": "(785) 675-3102"
  },
  {
    "id": 150,
    "formatted_address": "500 S Monroe St, Hugoton, KS 67951, USA",
    "lat": 37.1782893,
    "lng": -101.3459507,
    "rating": 5,
    "place_id": "ChIJO4OJhQD2CIcR_yAoxNFGvm0",
    "photo": "https://maps.googleapis.com/maps/api/place/js/PhotoService.GetPhoto?1sCmRaAAAAYTHmPJ2Ze2fj1jLOD003j-0XWbZplesK0yfTEnnKuuGz27qCr1jfqS0a0sE9Hfl4VityLAMb31eUZzlY4eYTBuoj-huOsRGQsnqfos4xfzR94Hv1FKuWDUKsragsUwLuEhAu4N_SoJYsDRmwC8JvEbfYGhTdl9p5sBJm3n2FJPM4rCtGJeL3ZQ&3u2448&5m1&2e1&callback=none&key=AIzaSyDpY6WL8JItnEEaReTqil6YNEgvwtSMPgA&token=64036",
    "name": "Stevens County Library",
    "phone": "(620) 544-2301"
  },
  {
    "id": 151,
    "formatted_address": "916 Bridge St, Humboldt, KS 66748, USA",
    "lat": 37.8114925,
    "lng": -95.43470150000002,
    "rating": 5,
    "place_id": "ChIJjQfyrapfuIcRBlAZtLH9XJA",
    "opening_hours": { "open_now": false },
    "photo": "https://maps.googleapis.com/maps/api/place/js/PhotoService.GetPhoto?1sCmRaAAAAykT7GTZTz_8RG-RF_fhwAd4w_nYTRFkhC5VncMG-zKe_x2f8__tL4zynJQPPsP3HFsAuXbEC1dx8MOrMhPaLziZ7lMzci_Smr_0u0b2xhFsebHP3SVRVC_mMYGc_E5ftEhAbTymn24BjtgkR0jM_CB54GhQQTsdoj38xpFLUb1CYhB5QrjRxlw&3u3072&5m1&2e1&callback=none&key=AIzaSyDpY6WL8JItnEEaReTqil6YNEgvwtSMPgA&token=24110",
    "name": "Humboldt Public Library",
    "phone": "(620) 473-2243"
  },
  {
    "id": 152,
    "formatted_address": "901 N Main St, Hutchinson, KS 67501, USA",
    "lat": 38.06320789999999,
    "lng": -97.9324631,
    "rating": 4.8,
    "place_id": "ChIJoxqiisO3pIcR5yLuCqGqd9Q",
    "opening_hours": { "open_now": false },
    "photo": "https://maps.googleapis.com/maps/api/place/js/PhotoService.GetPhoto?1sCmRaAAAA_QteCR9NHl0FzA6scDyfuMGmprTidwdyP5PdX79Mxx5yO9VGQdAZbJs7uRFOyFdnbselOdN-sMG3KKFuDPLzcswJk01QgqRVhDrIgCcHRsBod0VGeotYlSS2AmNXCay7EhAQ32O8zlO93ozH2CNXF-2TGhTGrPmhvyudUEkOhO2gXb7RKIBRFQ&3u4032&5m1&2e1&callback=none&key=AIzaSyDpY6WL8JItnEEaReTqil6YNEgvwtSMPgA&token=79842",
    "name": "Hutchinson Public Library",
    "phone": "(620) 663-5441"
  },
  {
    "id": 153,
    "formatted_address": "220 E Maple St, Independence, KS 67301, USA",
    "lat": 37.2222973,
    "lng": -95.70423019999998,
    "rating": 4.1,
    "place_id": "ChIJ5S6w8hQruIcRGo5MFCHiaXE",
    "opening_hours": { "open_now": false },
    "photo": "https://maps.googleapis.com/maps/api/place/js/PhotoService.GetPhoto?1sCmRaAAAATn5Pi2GnI-vlsUI6wmhzIWX1fF6JSXMRDxAS0PHqjsDilzPlMCF1NWim1bVPPdTS1IWKub1zNe3DwVWqFcloor6ryL6BhMUp491tWNv2F1ZHcMIr8gUqTFj1yD4aEq-sEhBi9QVPK5jRYUfEaEGAAmfZGhSdVxxXajNu-0qEE12mD3DL-VbzoA&3u1113&5m1&2e1&callback=none&key=AIzaSyDpY6WL8JItnEEaReTqil6YNEgvwtSMPgA&token=116708",
    "name": "Independence Public Library",
    "phone": "(620) 331-3030"
  },
  {
    "id": 154,
    "formatted_address": "100 N Main St, Inman, KS 67546, USA",
    "lat": 38.232087,
    "lng": -97.77562549999999,
    "rating": 5,
    "place_id": "ChIJbZlaxqhSu4cROSyJ7acUVJk",
    "photo": null,
    "name": "Inman Public Library",
    "phone": "(620) 585-2474"
  },
  {
    "id": 155,
    "formatted_address": "218 E Madison Ave, Iola, KS 66749, USA",
    "lat": 37.921578,
    "lng": -95.40167600000001,
    "rating": 4.1,
    "place_id": "ChIJA9eUCLn0uIcRfrqhFviHh98",
    "opening_hours": { "open_now": false },
    "photo": "https://maps.googleapis.com/maps/api/place/js/PhotoService.GetPhoto?1sCmRaAAAAqy6pI8tTQgA-dclkjkWEk_b0LLJ8gXvyapC0gNHbu9_wFogmD-VzRmLhCZ_rI_Fc8FhvhnLdNXGMfHwTblHgXWfOoPORj4RHrer5YC3-5nmiTSx8bbQtwyRRBU3qHHvkEhDaOO0v7Q_GqK0a-1PRa3JtGhRuZIUjkzEFL4Rf0sLTc963K5pd5g&3u2048&5m1&2e1&callback=none&key=AIzaSyDpY6WL8JItnEEaReTqil6YNEgvwtSMPgA&token=118380",
    "name": "Iola Public Library",
    "phone": "(620) 365-3262"
  },
  {
    "id": 156,
    "formatted_address": "218 E Madison Ave, Iola, KS 66749, USA",
    "lat": 37.9215778,
    "lng": -95.40167580000002,
    "rating": 0,
    "place_id": "ChIJAYjWArf0uIcR5P4K5IyjQw4",
    "opening_hours": { "open_now": false },
    "photo": "https://maps.googleapis.com/maps/api/place/js/PhotoService.GetPhoto?1sCmRaAAAAk_Vwowu4unnwwftWcn4zXFKLHXGhGjLrmD44toph6dHkW5UGA9XrJ6cH9UclPZOfNw3JnV69_xXAI4U_CLPB8NchEtK-BS1mvxdIduefAkzlWJ-iBy8kh2TG-zbiW2NoEhCkPaLYArKeIBRBUgYr7N5QGhSKK_THyPh6GlnIVH-Gu_tzPtOAcA&3u500&5m1&2e1&callback=none&key=AIzaSyDpY6WL8JItnEEaReTqil6YNEgvwtSMPgA&token=27611",
    "name": "Southeast Kansas Library System",
    "phone": ""
  },
  {
    "id": 157,
    "formatted_address": "311 Walnut St # D, Jamestown, KS 66948, USA",
    "lat": 39.599561,
    "lng": -97.86213129999999,
    "rating": 3.3,
    "place_id": "ChIJSb9nNC6soocRyaA_Q5CtMT8",
    "photo": null,
    "name": "Jamestown City Library",
    "phone": "(785) 439-6258"
  },
  {
    "id": 158,
    "formatted_address": "133 S Kansas Ave, Jennings, KS 67643, USA",
    "lat": 39.6806339,
    "lng": -100.29330470000002,
    "rating": 0,
    "place_id": "ChIJTQ93Lpvyn4cRwyGETowOL6U",
    "photo": null,
    "name": "Jennings City Library",
    "phone": "(785) 678-2666"
  },
  {
    "id": 159,
    "formatted_address": "608 Main St, Jetmore, KS 67854, USA",
    "lat": 38.0864389,
    "lng": -99.8935227,
    "rating": 0,
    "place_id": "ChIJX62GMeTXpocRvYraPZ1lw-w",
    "photo": null,
    "name": "Jetmore Public Library",
    "phone": "(620) 357-8336"
  },
  {
    "id": 160,
    "formatted_address": "216 Delaware St, Jewell, KS 66949, USA",
    "lat": 39.6693719,
    "lng": -98.1547807,
    "rating": 5,
    "place_id": "ChIJ68Pe4JWfoocRmv2aSmdKmOw",
    "photo": null,
    "name": "Jewell Public Library",
    "phone": "(785) 425-3630"
  },
  {
    "id": 161,
    "formatted_address": "103 E Sherman Ave, Johnson City, KS 67855, USA",
    "lat": 37.57156020000001,
    "lng": -101.7497457,
    "rating": 0,
    "place_id": "ChIJiVsUwSc9CYcR7-vud-bGynY",
    "opening_hours": { "open_now": false },
    "photo": null,
    "name": "Stanton County Public Library",
    "phone": "(620) 492-2302"
  },
  {
    "id": 162,
    "formatted_address": "230 W 7th St, Junction City, KS 66441, USA",
    "lat": 39.029632,
    "lng": -96.83285000000001,
    "rating": 3.8,
    "place_id": "ChIJZ4a4UFJJvIcRj9HlEQooqH0",
    "opening_hours": { "open_now": false },
    "photo": "https://maps.googleapis.com/maps/api/place/js/PhotoService.GetPhoto?1sCmRaAAAAn_8OXjRZ70-FyLRpv98x_JqNm7DIIwHaKR6mMJREwTebT5UDyE0IO9y26Dkl5QlHw5tW5keervbcRflJYVrygVDZkA8BoHh98P43U0IXSSAfWL-7MxsM5w_CDj0Z1vNaEhAZWKAsuStUJUVoXhYYkAFvGhSBncUmOVM3bQP2kH9jUfuQDPQ_ig&3u3584&5m1&2e1&callback=none&key=AIzaSyDpY6WL8JItnEEaReTqil6YNEgvwtSMPgA&token=29694",
    "name": "Dorothy Bramlage Public Library",
    "phone": "(785) 238-4311"
  },
  {
    "id": 163,
    "formatted_address": "221 N Kansas Ave, Kanopolis, KS 67454, USA",
    "lat": 38.7122554,
    "lng": -98.15768530000003,
    "rating": 5,
    "place_id": "ChIJo1fE0DUVo4cRel23kfIc4h4",
    "opening_hours": { "open_now": false },
    "photo": null,
    "name": "Kanopolis Public Library",
    "phone": "(785) 472-3053"
  },
  {
    "id": 164,
    "formatted_address": "625 Minnesota Ave, Kansas City, KS 66101, USA",
    "lat": 39.1149907,
    "lng": -94.6251274,
    "rating": 4.5,
    "place_id": "ChIJFajRpXLxwIcR8Lvwrx7ZwCA",
    "opening_hours": { "open_now": false },
    "photo": "https://maps.googleapis.com/maps/api/place/js/PhotoService.GetPhoto?1sCmRaAAAAm4ETgPOI1jSofRWh58D_e69NPFPvdVEPE_Zh1wIWo2UfN13BPtVTAl3z7P1ej1bj72nVXWtLfRBj5aGHy4aqembLTgd14fmBBcr3zVu2mO88XNBcx7s9VNLuSTTjTa7TEhCr1Bn8Aq1_Q3a-I21JoaAYGhQVGSUUBa-cIr8LlUwGp5p6EHoMEQ&3u480&5m1&2e1&callback=none&key=AIzaSyDpY6WL8JItnEEaReTqil6YNEgvwtSMPgA&token=53272",
    "name": "Kansas City, Kansas Public Library",
    "phone": "(913) 551-3280"
  },
  {
    "id": 165,
    "formatted_address": "4051 West Dr, Kansas City, KS 66109, USA",
    "lat": 39.1609799,
    "lng": -94.78987810000001,
    "rating": 5,
    "place_id": "ChIJkyj4C8CLwIcRNtopoL26KCo",
    "opening_hours": { "open_now": false },
    "photo": "https://maps.googleapis.com/maps/api/place/js/PhotoService.GetPhoto?1sCmRaAAAACMIjjx-XS9_BzIyGuaRj59Hqo2vZ0XTCvrEDz2yR4yjFW_IgkAqJalhnR_VXwoL_jCC5K8QWHmKSx9Y6pvDIodSiAtJXrrLXZuLr_wkNpRBjLtJr5wdmBIdTjJu_quG-EhAKIHt6Yv0OTlUPb-ds8jR-GhQukBClyGZzB7wJnYuRsUELzLbe8Q&3u480&5m1&2e1&callback=none&key=AIzaSyDpY6WL8JItnEEaReTqil6YNEgvwtSMPgA&token=70849",
    "name": "Mr. And Mrs. F.L. Schlagle Library",
    "phone": "(913) 299-2384"
  },
  {
    "id": 166,
    "formatted_address": "203 S Jackson Ave, Kensington, KS 66951, USA",
    "lat": 39.7652838,
    "lng": -99.03073259999996,
    "rating": 5,
    "place_id": "ChIJ6Rou35avmIcRvy_-_8zua3E",
    "photo": null,
    "name": "Kensington Community-School Library",
    "phone": "(785) 476-2219"
  },
  {
    "id": 167,
    "formatted_address": "455 N Main St, Kingman, KS 67068, USA",
    "lat": 37.6462549,
    "lng": -98.11358869999998,
    "rating": 4.7,
    "place_id": "ChIJ0fcC58chpYcR_TcqEdY59P0",
    "opening_hours": { "open_now": false },
    "photo": null,
    "name": "Kingman Carnegie Library",
    "phone": "(620) 532-3061"
  },
  {
    "id": 168,
    "formatted_address": "Kinsley, KS 67547, USA",
    "lat": 37.9230724,
    "lng": -99.40983840000001,
    "place_id": "ChIJh0Bz9S2WpocR0bVXwCaVgjQ",
    "photo": "https://maps.googleapis.com/maps/api/place/js/PhotoService.GetPhoto?1sCmRaAAAAAJcROmr9f2N1sMUF6lrGFpFLX8VGSO0U48YWTPmg0jUr-6_334hZIYErVbS26sWo2N1JFJOl7THQSBChneNunpgonYieJx5VAxo7pxJOXyp688dl6cLP8eQ96sYXjMhnEhBfYvo7AlEMCmKZvS3tyaeFGhQ_Jrvgd3zssfcpv0U5NZzuQJB8Cg&3u640&5m1&2e1&callback=none&key=AIzaSyDpY6WL8JItnEEaReTqil6YNEgvwtSMPgA&token=107545",
    "name": "Kinsley",
    "phone": "(620) 659-3341"
  },
  {
    "id": 169,
    "formatted_address": "123 N 7th St, Kiowa, KS 67070, USA",
    "lat": 37.0178635,
    "lng": -98.48563990000002,
    "rating": 5,
    "place_id": "ChIJr7WZZiCApYcREEZrfShOKAg",
    "photo": null,
    "name": "Kiowa Public Library",
    "phone": "(620) 825-4630"
  },
  {
    "id": 170,
    "formatted_address": "1st St & Main St, Kirwin, KS 67644, United States",
    "lat": 39.6728682,
    "lng": -99.1232842,
    "rating": 0,
    "place_id": "ChIJtSJJdMermIcRMqPeZLWyKfc",
    "photo": null,
    "name": "Kirwin City Library",
    "phone": "(785) 543-6652"
  },
  {
    "id": 171,
    "formatted_address": "503 Main St, Kismet, KS 67859, USA",
    "lat": 37.20333919999999,
    "lng": -100.70027959999999,
    "rating": 0,
    "place_id": "ChIJi5QxR3ohCIcR0uDElUMcwos",
    "photo": null,
    "name": "Kismet Public Library",
    "phone": "(620) 563-7357"
  },
  {
    "id": 172,
    "formatted_address": "521 Elm St, La Crosse, KS 67548, USA",
    "lat": 38.5288914,
    "lng": -99.31110319999999,
    "rating": 5,
    "place_id": "ChIJPzyATI9boYcRFWKccyZtcVs",
    "opening_hours": { "open_now": false },
    "photo": "https://maps.googleapis.com/maps/api/place/js/PhotoService.GetPhoto?1sCmRaAAAALSmRvn-8T4rCv3G6KoLB12jO04DCUps6e69-iBmSWj0yqEJdHUG0CD2OP3skhrg2uqBey9BntsIlYeb2K4tDAZMuakiD9oRVEzxC-ibAAd2PI2CAAUYS4OjUTimvkvdEEhCIREzEXlDoZmbPkVM26QAIGhQVZpzg_cuBuFVv96fEQL0Q74txRw&3u2560&5m1&2e1&callback=none&key=AIzaSyDpY6WL8JItnEEaReTqil6YNEgvwtSMPgA&token=73938",
    "name": "Barnard Library",
    "phone": "(785) 222-2826"
  },
  {
    "id": 173,
    "formatted_address": "209 N Broadway St, Lacygne, KS 66040, USA",
    "lat": 38.3466122,
    "lng": -94.76238969999997,
    "rating": 5,
    "place_id": "ChIJD8Au36lHx4cRSto_fXJ4Dwo",
    "opening_hours": { "open_now": false },
    "photo": "https://maps.googleapis.com/maps/api/place/js/PhotoService.GetPhoto?1sCmRaAAAAJ-Jr7EQZtxVk5HssgCj9peIJd5uBHx-OBzGnf_7jNxkCatRwQQbPNXeQ5uDvuRvqyXSWQN_ct1twe-W5LP-RP1ChmEiAXzEV_n0dggctv2-TEbuO-HgRuQd00k3wc816EhAb7cIPDqVUOe0FQCUoLjFEGhSOCyHUzaAa2a-EfEJ_tjXvFqP2NQ&3u2048&5m1&2e1&callback=none&key=AIzaSyDpY6WL8JItnEEaReTqil6YNEgvwtSMPgA&token=107555",
    "name": "Library District 2 , Linn County",
    "phone": "(913) 757-2151"
  },
  {
    "id": 174,
    "formatted_address": "209 N Broadway St, Lacygne, KS 66040, USA",
    "lat": 38.3466122,
    "lng": -94.76238969999997,
    "rating": 5,
    "place_id": "ChIJD8Au36lHx4cRSto_fXJ4Dwo",
    "opening_hours": { "open_now": false },
    "photo": "https://maps.googleapis.com/maps/api/place/js/PhotoService.GetPhoto?1sCmRaAAAAuGKajRSmJ1Gu_Z2kDuEBd2GMqyku103GxHNrUr6fJWWyWjA-3qb8p2oMDeYtChXD-OyLOryjWq140Y22qOOr9dWfAonsQNy9l8lTWh5k0CCuHlV2xczMbXymJJFGyt6hEhC1lSrbN_liSvYWh6FuQr6hGhT5i-saQzGEXZyqwQ8lLL5RFiFWZA&3u2048&5m1&2e1&callback=none&key=AIzaSyDpY6WL8JItnEEaReTqil6YNEgvwtSMPgA&token=96518",
    "name": "Library District 2 Of Linn County, La Cygne",
    "phone": "(913) 757-2151"
  },
  {
    "id": 175,
    "formatted_address": "101 Prairie Ave, Lakin, KS 67860, USA",
    "lat": 37.943005,
    "lng": -101.25635590000002,
    "rating": 4,
    "place_id": "ChIJf6gZQaucCYcRe-laaoTi9qY",
    "photo": null,
    "name": "Kearny County Library",
    "phone": "(620) 355-6674"
  },
  {
    "id": 176,
    "formatted_address": "724 Broadway St, Larned, KS 67550, USA",
    "lat": 38.1814766,
    "lng": -99.09806650000002,
    "rating": 5,
    "place_id": "ChIJ24YgHHkEpIcRz_5r-JPDwdU",
    "opening_hours": { "open_now": false },
    "photo": "https://maps.googleapis.com/maps/api/place/js/PhotoService.GetPhoto?1sCmRaAAAAYbncMRD-HrlWaC-Bo1CwbDJu633NTkiQfsmkgjuXbCBXmKzIeRayDVpMDRoxwXnyifOfHWBo1SocysUqwy3c0EXn8oKAlXYzyLVQcg21-0BZ37d7AbTuh87RIf1BeS6eEhBatuFOtH1eDETDXbreDWK5GhR-UR64f0Hhe3sfkpRCQNkD147zVw&3u2560&5m1&2e1&callback=none&key=AIzaSyDpY6WL8JItnEEaReTqil6YNEgvwtSMPgA&token=105378",
    "name": "Jordaan Memorial Library",
    "phone": "(620) 285-2876"
  },
  {
    "id": 177,
    "formatted_address": "707 Vermont St, Lawrence, KS 66044, USA",
    "lat": 38.9708174,
    "lng": -95.23762829999998,
    "rating": 4.6,
    "place_id": "ChIJOwLUN0Nvv4cR39axdxn8bdc",
    "opening_hours": { "open_now": false },
    "photo": "https://maps.googleapis.com/maps/api/place/js/PhotoService.GetPhoto?1sCmRaAAAAnmLyUH8qGHXRhJVAo7omzDCMMIu8vnrRtNjp6hWES9-7fRptDtRxVVpI3bW6HMWw-Cuua3FPppXk9RSnN_1l60AmTTrfyn-x0jGv2AWtmX-skHqxlE_wt-P0JTUKuCdhEhCROt4M79eUtQyxO362h6uzGhSKq4sVpzMZH-hTG4gO4JUHksU_vQ&3u6000&5m1&2e1&callback=none&key=AIzaSyDpY6WL8JItnEEaReTqil6YNEgvwtSMPgA&token=16337",
    "name": "Lawrence Public Library",
    "phone": "(785) 843-3833"
  },
  {
    "id": 178,
    "formatted_address": "4317 W 6th St, Lawrence, KS 66049, USA",
    "lat": 38.97104090000001,
    "lng": -95.29593080000001,
    "rating": 0,
    "place_id": "ChIJT76qjb1uv4cR0BmFWTGWf9c",
    "opening_hours": { "open_now": false },
    "photo": "https://maps.googleapis.com/maps/api/place/js/PhotoService.GetPhoto?1sCmRaAAAAsBQJ0tAolFeq3bscXUsH98i0XQilH2W_xoJJ8L1jVXhGbsVYBW3xbd8NzCV-eiCDi08n05SAYClWTeKwDJ6bk5skeLwcSamFwz8gY8dxtB5UYdwfm6nwMHJZ6m4WJfrWEhAQZdS0312KvAl72O3SybW8GhRQcGST2MQBdgyk-B-CZVJqy20ufQ&3u1920&5m1&2e1&callback=none&key=AIzaSyDpY6WL8JItnEEaReTqil6YNEgvwtSMPgA&token=49965",
    "name": "Northeast Kansas Library System",
    "phone": "(785) 838-4090"
  },
  {
    "id": 179,
    "formatted_address": "417 Spruce St, Leavenworth, KS 66048, USA",
    "lat": 39.3105091,
    "lng": -94.91282050000001,
    "rating": 4.4,
    "place_id": "ChIJD_xANV17wIcRkd-wJO2cj9g",
    "opening_hours": { "open_now": false },
    "photo": "https://maps.googleapis.com/maps/api/place/js/PhotoService.GetPhoto?1sCmRaAAAAhd2FXNS9oRf6_Ljh718q4W7IffSQvNnGk_S3H7LmpyN3Y-D4cW71RuMSzngurUr0QtPivLfy7J28TdAKxQmwTi6qN043oa8EZazBEhfgco5WQzHx-ScAicj3zACtAWSGEhBVWeEOkKcFdXvYcfEcyZHXGhRDY7AIseLj9ZXAwsZi5uOZ0hDVcg&3u3936&5m1&2e1&callback=none&key=AIzaSyDpY6WL8JItnEEaReTqil6YNEgvwtSMPgA&token=59088",
    "name": "Leavenworth Public Library",
    "phone": "(913) 682-5666"
  },
  {
    "id": 180,
    "formatted_address": "4700 Town Center Dr, Leawood, KS 66211, USA",
    "lat": 38.9173722,
    "lng": -94.64067639999996,
    "rating": 4.4,
    "place_id": "ChIJPdptT4vpwIcRC76XRgRwzYo",
    "opening_hours": { "open_now": false },
    "photo": "https://maps.googleapis.com/maps/api/place/js/PhotoService.GetPhoto?1sCmRaAAAAY3R8WA-r91ioUztnhsVyVDKRLw1lYggfAcax-9s5ZDCLyhukBMXmi7YeUKq33eda5D0M-3ZqfisYStEOm_4kxuakgyesAN2rhOJKmiLu5hL-7_oeBush-3LNRdLviha5EhBw4NbzYySJx5GeaP0IT5zaGhSYgi1n_LmlbNIehtF1n3Uj7H_aOg&3u5312&5m1&2e1&callback=none&key=AIzaSyDpY6WL8JItnEEaReTqil6YNEgvwtSMPgA&token=45864",
    "name": "Johnson County Library, Leawood",
    "phone": "(913) 344-0250"
  },
  {
    "id": 181,
    "formatted_address": "Lebanon, KS 66952, USA",
    "lat": 39.8086787,
    "lng": -98.5549901,
    "rating": 4.8,
    "place_id": "ChIJK40wUGuGmIcR74HVMpRI4z0",
    "photo": "https://maps.googleapis.com/maps/api/place/js/PhotoService.GetPhoto?1sCmRaAAAAMFNnFTcxa1QdWkLNT6jit9Cb9Ti0FugTSDCXlJp7sHo3osezDwgSQa-ElfhpHlinxf9PybgMu0O4AlifSsysPfsKyYAaLAte3bgDjPlSPKtOBJn3KWXdP4xmJE7kSGbMEhDiaKRM1tJRlY4v93rin5y3GhTMti36CVCXwxxBOGTLgm6ngntsgQ&3u2160&5m1&2e1&callback=none&key=AIzaSyDpY6WL8JItnEEaReTqil6YNEgvwtSMPgA&token=89777",
    "name": "Lebanon Community",
    "phone": "(785) 389-5711"
  },
  {
    "id": 182,
    "formatted_address": "8778 Penrose Ln, Lenexa, KS 66219, USA",
    "lat": 38.9698278,
    "lng": -94.7842316,
    "rating": 4.7,
    "place_id": "ChIJt8ZeW4GUwIcRD7qm_E3DCiQ",
    "opening_hours": { "open_now": false },
    "photo": "https://maps.googleapis.com/maps/api/place/js/PhotoService.GetPhoto?1sCmRaAAAA2WeCfYitbOyAJ7ehkBvsa-6fZyEcR4QaZ01YWteyHYp37auoV0Aowhe1osqMYEHLvhVXrrqPEqAwu5OSdRBvJBdZtJFo5mxzRi-6b-GG6prQ5rd6Bi8Dy8rYqi3aux6CEhBO6uLp2IPLNgSLL2e95JfDGhRAIUFH5lJ2VemTa3NEIH21GN5R1w&3u1813&5m1&2e1&callback=none&key=AIzaSyDpY6WL8JItnEEaReTqil6YNEgvwtSMPgA&token=43265",
    "name": "Johnson County Library, Lackman",
    "phone": "(913) 752-8750"
  },
  {
    "id": 183,
    "formatted_address": "110 N Main St, Lenora, KS 67645, USA",
    "lat": 39.6105865,
    "lng": -100.0022055,
    "rating": 0,
    "place_id": "ChIJRbkxBsiGn4cRr8t-eVd-nIA",
    "photo": null,
    "name": "Lenora Public Library",
    "phone": "(785) 567-4432"
  },
  {
    "id": 184,
    "formatted_address": "113 S Main St, Leon, KS 67074, USA",
    "lat": 37.6877297,
    "lng": -96.78130090000002,
    "rating": 0,
    "place_id": "ChIJ4TpbBpBJuocRi0xvWA-tzMI",
    "photo": "https://maps.googleapis.com/maps/api/place/js/PhotoService.GetPhoto?1sCmRaAAAAYo2xYaQk96Ohab5q2C77_3rAIXXm3w_a179UQP2pPIwashVEFsPx7XfI21K3FbvToYjkhjsd33UXBjP3l78IOJcDkeVHG_c2-9kZrLt3n-_ZenMh-oTmucjihEsvMay3EhA-v_zppYqCcgp-gsIKxvCdGhSGlyU42O-EncNQIS6nixMQ36ciyw&3u2048&5m1&2e1&callback=none&key=AIzaSyDpY6WL8JItnEEaReTqil6YNEgvwtSMPgA&token=87739",
    "name": "Leon Public Library",
    "phone": "(316) 742-3438"
  },
  {
    "id": 185,
    "formatted_address": "117 Erpelding St, Leonardville, KS 66449, USA",
    "lat": 39.364989,
    "lng": -96.85931399999998,
    "rating": 0,
    "place_id": "ChIJUxNzVoq7vYcR1IzrR_qgn1s",
    "photo": null,
    "name": "Leonardville City Library",
    "phone": "(785) 293-5606"
  },
  {
    "id": 186,
    "formatted_address": "208 S 4th St, Leoti, KS 67861, USA",
    "lat": 38.4795301,
    "lng": -101.35867940000003,
    "rating": 3,
    "place_id": "ChIJBaCIa9m0C4cRszYbi5VIZOI",
    "opening_hours": { "open_now": false },
    "photo": "https://maps.googleapis.com/maps/api/place/js/PhotoService.GetPhoto?1sCmRaAAAAasYaQbAUslaVN0bnapwteyXsoohHGCU7THHKN0EjM8ZFCqdmGQC7mAkhxbIBLm8lMQKgbPyesgDN5PL9lHOp5OAo79bYx9cyAFglG9eeKwW7Ara7fTZkD04VNpqZ82CQEhAgF2pCex_URH2WeK7PR8NWGhTzTJpgQm2TzyyGoieFN654UjElaw&3u2030&5m1&2e1&callback=none&key=AIzaSyDpY6WL8JItnEEaReTqil6YNEgvwtSMPgA&token=12883",
    "name": "Wichita County Library",
    "phone": "(620) 375-4322"
  },
  {
    "id": 187,
    "formatted_address": "208 Main St, Lewis, KS 67552, USA",
    "lat": 37.937492,
    "lng": -99.25437490000002,
    "rating": 0,
    "place_id": "ChIJWXPml2mfpocRnWOY4_xES_8",
    "photo": null,
    "name": "Meadowlark Library-Lewis",
    "phone": "(620) 324-5743"
  },
  {
    "id": 188,
    "formatted_address": "519 N Kansas Ave, Liberal, KS 67901, USA",
    "lat": 37.0434248,
    "lng": -100.92184880000002,
    "rating": 4.5,
    "place_id": "ChIJCdivM48TCIcR-oJnQjy_TmQ",
    "opening_hours": { "open_now": false },
    "photo": "https://maps.googleapis.com/maps/api/place/js/PhotoService.GetPhoto?1sCmRaAAAAUOmX1SSrfUPW4r9RYeGQ8CC5SF6ynicV4q_ZjxulPGV5y0GZH-P0h0Uph4DLNQDQ2T6mPOeANcz18FldHQ5W9S_-bUP7oRK3BRjtBg7OMzdNARx7LUUUK5LiP1BHtaWJEhBRzZXkMPKMjRH0_4v7YNWQGhRLV16YKkuxgd_IqFj3Q65tIyOAPA&3u4032&5m1&2e1&callback=none&key=AIzaSyDpY6WL8JItnEEaReTqil6YNEgvwtSMPgA&token=17831",
    "name": "Liberal Memorial Library",
    "phone": "(620) 626-0180"
  },
  {
    "id": 189,
    "formatted_address": "203 S 3rd St, Lincoln, KS 67455, USA",
    "lat": 39.0392199,
    "lng": -98.14585339999996,
    "rating": 5,
    "place_id": "ChIJoX8U3RzgoocRC0_hhqnG330",
    "opening_hours": { "open_now": false },
    "photo": "https://maps.googleapis.com/maps/api/place/js/PhotoService.GetPhoto?1sCmRaAAAAZoDCSuIxQ-dSja9fSR2yd7SeJE_YGE6jzT4r6-8u3rexWeuXLkQSDH5HppzAXicX2B8tTYh3TmIYUdMLGG9D76U3gzp16CxmrqaIgMAj7GKr94b_TEb8WD2Dha-odHOzEhBseaLlQapJUTTXyBxsuEbhGhSrhN6BxOmvP7MmdqFtFTq8awTJRg&3u950&5m1&2e1&callback=none&key=AIzaSyDpY6WL8JItnEEaReTqil6YNEgvwtSMPgA&token=100618",
    "name": "Lincoln Carnegie Library",
    "phone": "(785) 524-4034"
  },
  {
    "id": 190,
    "formatted_address": "111 S Main St, Lindsborg, KS 67456, USA",
    "lat": 38.5729083,
    "lng": -97.67572380000001,
    "rating": 4.8,
    "place_id": "ChIJ97iMFd6xvIcRliZ1tm-AEI0",
    "opening_hours": { "open_now": false },
    "photo": "https://maps.googleapis.com/maps/api/place/js/PhotoService.GetPhoto?1sCmRaAAAAZumOtpVYTWcwUt-NGVj5y8cg8jDuZeC2Fy9b5jhetQ-VTj9IaKoBal33Pwq-yjavhUz28ty_WiT1vY_OCsz9ALZygkzO3-zZHls8unYhxEKzkmiUvLKIlASPTGJYjkkdEhC3WNG9fMZZm8cKz1sr3AwkGhQd8KdVlYmJ2bKsjLZsaQLgv9dvWg&3u550&5m1&2e1&callback=none&key=AIzaSyDpY6WL8JItnEEaReTqil6YNEgvwtSMPgA&token=98324",
    "name": "Lindsborg Community Library",
    "phone": "(785) 227-2710"
  },
  {
    "id": 191,
    "formatted_address": "19649 Linwood Rd, Linwood, KS 66052, USA",
    "lat": 39.0041033,
    "lng": -95.03413549999999,
    "rating": 0,
    "place_id": "ChIJu5jT1qGdwIcRB4qpAJctzaU",
    "opening_hours": { "open_now": false },
    "photo": null,
    "name": "Linwood Community Library District 1",
    "phone": "(913) 301-3686"
  },
  {
    "id": 192,
    "formatted_address": "125 Main St, Little River, KS 67457, USA",
    "lat": 38.4005929,
    "lng": -98.01061920000001,
    "rating": 0,
    "place_id": "ChIJubHuLvNYo4cR1reKf6MS6dg",
    "photo": null,
    "name": "Little River Community Library",
    "phone": "(620) 897-6610"
  },
  {
    "id": 193,
    "formatted_address": "109 Main St, Logan, KS 67646, USA",
    "lat": 39.6616,
    "lng": -99.56758100000002,
    "rating": 0,
    "place_id": "ChIJyfJr3Mlgn4cRihBMmNvAmfc",
    "opening_hours": { "open_now": false },
    "photo": null,
    "name": "Logan Public Library",
    "phone": "(785) 689-4333"
  },
  {
    "id": 194,
    "formatted_address": "350 W Washington Ave, Long Island, KS 67647, USA",
    "lat": 39.9486666,
    "lng": -99.53404940000001,
    "rating": 0,
    "place_id": "ChIJoYMLKNA_n4cRAP1YR25arC0",
    "photo": null,
    "name": "Long Island Community Library",
    "phone": "(785) 854-7474"
  },
  {
    "id": 195,
    "formatted_address": "512A Kansas, Longton, KS 67352, USA",
    "lat": 37.3774658,
    "lng": -96.0804253,
    "rating": 0,
    "place_id": "ChIJp9nPMejpuYcR3WHuFLcBO40",
    "opening_hours": { "open_now": false },
    "photo": null,
    "name": "Longton Public Library",
    "phone": "(620) 642-6012"
  },
  {
    "id": 196,
    "formatted_address": "206 S Broadway St, Louisburg, KS 66053, USA",
    "lat": 38.6190816,
    "lng": -94.68151710000001,
    "rating": 5,
    "place_id": "ChIJ6T6MH7TLwIcRUPmwZZBnF8g",
    "opening_hours": { "open_now": false },
    "photo": null,
    "name": "Library District 1, Miami County",
    "phone": "(913) 837-2217"
  },
  {
    "id": 197,
    "formatted_address": "206 S Broadway St, Louisburg, KS 66053, USA",
    "lat": 38.6191035,
    "lng": -94.68152220000002,
    "rating": 4.9,
    "place_id": "ChIJ6T6MH7TLwIcRNsSsmDuSZUY",
    "opening_hours": { "open_now": false },
    "photo": null,
    "name": "Louisburg Library",
    "phone": "(913) 837-2217"
  },
  {
    "id": 198,
    "formatted_address": "209 S Main St, Lucas, KS 67648, USA",
    "lat": 39.0577048,
    "lng": -98.5383109,
    "rating": 0,
    "place_id": "ChIJ97oiaVBUoocR-Lqwl3iYi4Y",
    "photo": null,
    "name": "Lucas Public Library",
    "phone": "(785) 525-6305"
  },
  {
    "id": 199,
    "formatted_address": "119 Main St, Luray, KS 67649, USA",
    "lat": 39.113026,
    "lng": -98.69179050000002,
    "rating": 0,
    "place_id": "ChIJqwQeN05OoocR_k-vH_X67i4",
    "photo": null,
    "name": "Luray City Library",
    "phone": "(785) 698-2208"
  },
  {
    "id": 200,
    "formatted_address": "127 E 6th St, Lyndon, KS 66451, USA",
    "lat": 38.609031,
    "lng": -95.683423,
    "rating": 5,
    "place_id": "ChIJnysB5Xkpv4cRzlyfY_9oJd8",
    "opening_hours": { "open_now": false },
    "photo": "https://maps.googleapis.com/maps/api/place/js/PhotoService.GetPhoto?1sCmRaAAAA1z40_d_8Y76K_xYbQQMXa3IsA1lwKH6RpX-AcwPgBwCcROqqoaQqWiDfCenvGmfnmllcu1Q6SHIV90Oh5sITEvYw3zkLikHWGa0fpOCCsxRdxhN5xRmM4XIXG51RPYL5EhBgJmDq2xzEM-PbUTTS3yUaGhRpUUR8vK1JqQ8VxRBI3pbhz_laQA&3u2048&5m1&2e1&callback=none&key=AIzaSyDpY6WL8JItnEEaReTqil6YNEgvwtSMPgA&token=82315",
    "name": "Lyndon Carnegie Library",
    "phone": "(785) 828-4520"
  },
  {
    "id": 201,
    "formatted_address": "201 W Main St, Lyons, KS 67554, USA",
    "lat": 38.3479021,
    "lng": -98.20508389999998,
    "rating": 0,
    "place_id": "ChIJ9UjK6xSepIcRV90wDxKqGgM",
    "opening_hours": { "open_now": false },
    "photo": "https://maps.googleapis.com/maps/api/place/js/PhotoService.GetPhoto?1sCmRaAAAA-7iwtO87qbijO9hKlQGJhocgUwSv6ngiBm3T06G7T-cHtW4deJNl_kNsun_JC3lLOBxMeDQXd6N_zsFm_e8SKaWqrStjCLjtNzC_lpaJ7xR54dNg6YyIKahyAj63EAevEhDrDLi5D1Xsg_l1L7tToHZUGhSlqp7RirDIjxUdx31G5PTRwbR_0g&3u274&5m1&2e1&callback=none&key=AIzaSyDpY6WL8JItnEEaReTqil6YNEgvwtSMPgA&token=33235",
    "name": "Lyons Public Library",
    "phone": "(620) 257-2961"
  },
  {
    "id": 202,
    "formatted_address": "333 N Main St, Macksville, KS 67557, USA",
    "lat": 37.9593914,
    "lng": -98.96782029999997,
    "rating": 0,
    "place_id": "ChIJHyHu7p09pIcRpNhloJUg_kM",
    "photo": null,
    "name": "Macksville City Library",
    "phone": "(620) 348-3555"
  },
  {
    "id": 203,
    "formatted_address": "110 S 1st St, Madison, KS 66860, USA",
    "lat": 38.1371929,
    "lng": -96.13307750000001,
    "rating": 0,
    "place_id": "ChIJrxrgbRVquYcRw7UcMKyMR9M",
    "opening_hours": { "open_now": false },
    "photo": null,
    "name": "Madison Public Library",
    "phone": "(620) 437-2634"
  },
  {
    "id": 204,
    "formatted_address": "629 Poyntz Ave, Manhattan, KS 66502, USA",
    "lat": 39.1790379,
    "lng": -96.56624469999997,
    "rating": 4.6,
    "place_id": "ChIJUT4I-GLSvYcRNDXG14jao28",
    "opening_hours": { "open_now": false },
    "photo": "https://maps.googleapis.com/maps/api/place/js/PhotoService.GetPhoto?1sCmRaAAAAbqBxor2SdzDAOFwweOSZhOunhwMTXX3ZGrJVZtDWXOmMwownNLuNSAVwwTP67XwHZw-LJ5U-g7XZ6KyF8XGM9E2v98VfqXwbsvHzvikUfPl054MRkcjGwxmaw8zAlxxKEhBKoD1ruEldPAYhhuNQHLE1GhSeylhCRcezLWdcDPZCF5xQPHOUCQ&3u2448&5m1&2e1&callback=none&key=AIzaSyDpY6WL8JItnEEaReTqil6YNEgvwtSMPgA&token=1705",
    "name": "Manhattan Public Library",
    "phone": "(785) 776-4741"
  },
  {
    "id": 205,
    "formatted_address": "629 Poyntz Ave, Manhattan, KS 66502, USA",
    "lat": 39.1790379,
    "lng": -96.56624469999997,
    "rating": 4.6,
    "place_id": "ChIJUT4I-GLSvYcRNDXG14jao28",
    "opening_hours": { "open_now": false },
    "photo": "https://maps.googleapis.com/maps/api/place/js/PhotoService.GetPhoto?1sCmRaAAAAauFKnMMq9X_V3cu0Sxg4ICOX8-UZN8pvlsYi5_1KO3RVkVxKgbcoda7BewkozOCLhlglMqkk_3SCUdqtploD7GNITg-TyuD3Eh_8dlm-sb6ECG32-Froce-Y3ypYzL80EhDK6-AyLaHHjVfVR8Iu9SxsGhTdIZqGIJjL1Q19Dl1qHUkSaeJsYQ&3u2448&5m1&2e1&callback=none&key=AIzaSyDpY6WL8JItnEEaReTqil6YNEgvwtSMPgA&token=112656",
    "name": "North Central Kansas Library System",
    "phone": "(785) 776-4741"
  },
  {
    "id": 206,
    "formatted_address": "214 N High St # 1, Mankato, KS 66956, USA",
    "lat": 39.78893,
    "lng": -98.21130719999996,
    "rating": 0,
    "place_id": "ChIJeyBtEeZzmIcRUa0Qfn7pScQ",
    "opening_hours": { "open_now": false },
    "photo": null,
    "name": "Mankato City Library",
    "phone": "(785) 378-3885"
  },
  {
    "id": 207,
    "formatted_address": "101 Library St, Marion, KS 66861, USA",
    "lat": 38.34619620000001,
    "lng": -97.01955290000001,
    "rating": 5,
    "place_id": "ChIJk0YKBPCDu4cRCGGBVRLwYAw",
    "opening_hours": { "open_now": false },
    "photo": null,
    "name": "Marion City Library",
    "phone": "(620) 382-2442"
  },
  {
    "id": 208,
    "formatted_address": "121 N Washington St, Marquette, KS 67464, USA",
    "lat": 38.5541423,
    "lng": -97.83417279999998,
    "rating": 0,
    "place_id": "ChIJm9jzAXxSo4cRMYWz-G0EC0I",
    "photo": null,
    "name": "Marquette Community Library",
    "phone": "(785) 546-2561"
  },
  {
    "id": 209,
    "formatted_address": "1009 Broadway St, Marysville, KS 66508, USA",
    "lat": 39.84159409999999,
    "lng": -96.6450964,
    "rating": 5,
    "place_id": "ChIJuSXGcDcclocRRS93WEVl7bc",
    "opening_hours": { "open_now": false },
    "photo": "https://maps.googleapis.com/maps/api/place/js/PhotoService.GetPhoto?1sCmRaAAAAILaPkRnLGqIMgSkUdY-RjocuiNBpsE2GK5vo_39TaQx8voTUhtsWel6pEsJDvcUIFoeQLKBmtmujVWMT5oG1SBZkpswJKVdY2YUHdvn5YVhT588vf_yDHpKjpjOLHyJWEhDq-SAClhxFKszMpuUUxA5FGhTa68RGSlBGNNNdxNABXYOlS5aLmg&3u960&5m1&2e1&callback=none&key=AIzaSyDpY6WL8JItnEEaReTqil6YNEgvwtSMPgA&token=23393",
    "name": "Marysville Public Library",
    "phone": "(785) 562-2491"
  },
  {
    "id": 210,
    "formatted_address": "303 Main St, McCracken, KS 67556, USA",
    "lat": 38.5845535,
    "lng": -99.5697662,
    "rating": 0,
    "place_id": "ChIJoW2q0MI_oYcRh0pEIfzAgHM",
    "opening_hours": { "open_now": false },
    "photo": null,
    "name": "Mccracken Public Library",
    "phone": "(785) 394-2444"
  },
  {
    "id": 211,
    "formatted_address": "509 6th St, McCune, KS 66753, USA",
    "lat": 37.3531341,
    "lng": -95.01934110000002,
    "rating": 0,
    "place_id": "ChIJTaHmMS34x4cRT7HvFLOJ1Qg",
    "opening_hours": { "open_now": false },
    "photo": "https://maps.googleapis.com/maps/api/place/js/PhotoService.GetPhoto?1sCmRaAAAAwsXTrCH4OsCX8dY-VABPaBoy8D86laQtIALd9gWfY-ncc17nRPOgraPApzzHyzKOX35l11zYS-8c8a34ENoqrao2aW4F0lLnHePAlLJh4Yn04sJStgeQGIhztXpidKmTEhDU3-mogZqOZwBaDRheWM0EGhQcMDIZOpF9xL-sGr3L7Nk2yCx1aQ&3u4032&5m1&2e1&callback=none&key=AIzaSyDpY6WL8JItnEEaReTqil6YNEgvwtSMPgA&token=7218",
    "name": "Mccune Osage Township Library",
    "phone": "(620) 632-4112"
  },
  {
    "id": 212,
    "formatted_address": "215 S Union St, McLouth, KS 66054, USA",
    "lat": 39.1961692,
    "lng": -95.2085854,
    "rating": 5,
    "place_id": "ChIJfW1IjAx4v4cRpGG8VYMFOtU",
    "photo": null,
    "name": "Mclouth Public Library",
    "phone": "(913) 796-2225"
  },
  {
    "id": 213,
    "formatted_address": "214 W Marlin St, McPherson, KS 67460, USA",
    "lat": 38.37067500000001,
    "lng": -97.668973,
    "rating": 4.6,
    "place_id": "ChIJT43RLVtWu4cRLl0DDbxbzk4",
    "opening_hours": { "open_now": false },
    "photo": "https://maps.googleapis.com/maps/api/place/js/PhotoService.GetPhoto?1sCmRaAAAARgPW54ecHd9ZtfVkt24ZoBsedgCjeA3QTOXFz36LXeNsWbtKtuTPAnzdOLotseJvmpHKGwdiA1oJIx5ufT_EFX4-MEIbMV6tY7pE9f1wfilZfAbHCbxp1Far-scUeNedEhAgcsBty0RbhLhBnnqMIldhGhS4H6sMWnJNSf-8ThfQHtZQXq73AQ&3u1600&5m1&2e1&callback=none&key=AIzaSyDpY6WL8JItnEEaReTqil6YNEgvwtSMPgA&token=33495",
    "name": "Mcpherson Public Library",
    "phone": "(620) 245-2570"
  },
  {
    "id": 214,
    "formatted_address": "104 E West Plains St, Meade, KS 67864, USA",
    "lat": 37.2847335,
    "lng": -100.33966090000001,
    "rating": 5,
    "place_id": "ChIJI4sElbCWp4cR1oq1cFXA8-s",
    "opening_hours": { "open_now": false },
    "photo": null,
    "name": "Meade Public Library",
    "phone": "(620) 873-2522"
  },
  {
    "id": 215,
    "formatted_address": "201 N Main St, Medicine Lodge, KS 67104, USA",
    "lat": 37.2820397,
    "lng": -98.57964099999998,
    "rating": 5,
    "place_id": "ChIJlX-mDimZpYcRH-8dIHorge0",
    "opening_hours": { "open_now": false },
    "photo": "https://maps.googleapis.com/maps/api/place/js/PhotoService.GetPhoto?1sCmRaAAAA3k8F98Y7bfWbyX4RJx2DJ522iP6FoGN9L8zHzgU2hmLj_Z2TOP-13_CHvnPYcaiO_UoFqDS2zH7AT-428rqrBZlXE8P6AXfE7XW9o00P9_p9p2-AvgYd82IjC0uVEjI0EhCWfPf0gaNjkVLFaEsju08JGhSpQvjBoWkUjG6KJJD4HymzmHwryQ&3u960&5m1&2e1&callback=none&key=AIzaSyDpY6WL8JItnEEaReTqil6YNEgvwtSMPgA&token=28655",
    "name": "Lincoln Library",
    "phone": "(620) 886-5746"
  },
  {
    "id": 216,
    "formatted_address": "7272 K4 Hwy # D, Meriden, KS 66512, USA",
    "lat": 39.177297,
    "lng": -95.56952899999999,
    "rating": 4.5,
    "place_id": "ChIJeRpt1eQHv4cRj1uUA0sOFso",
    "photo": null,
    "name": "Meriden Community Library",
    "phone": "(785) 484-3393"
  },
  {
    "id": 217,
    "formatted_address": "8700 Shawnee Mission Pkwy, Merriam, KS 66202, USA",
    "lat": 39.0155692,
    "lng": -94.6868614,
    "rating": 4.4,
    "place_id": "ChIJySKrev_swIcRQ7B3NogVkMg",
    "opening_hours": { "open_now": false },
    "photo": "https://maps.googleapis.com/maps/api/place/js/PhotoService.GetPhoto?1sCmRaAAAA3bm-phXolLZORsxKRYJ6nx3OYIuz3m2QVJjtsKGUQcIEHi5uwlGuPZ5PnGDA9ekPCtgKGQ9UyMKtHX-Coqeh6Ls5z9QQmiq-iV9uH_F5jjX_ptYm8YLqN798cBd_CaV-EhB02UzgEgIG9LSkJp3Y7EnXGhTNIrHr3S_i-twA0vCkXqw6vu-Cqw&3u2048&5m1&2e1&callback=none&key=AIzaSyDpY6WL8JItnEEaReTqil6YNEgvwtSMPgA&token=115772",
    "name": "Johnson County Library, Antioch Central",
    "phone": "(913) 384-8500"
  },
  {
    "id": 218,
    "formatted_address": "112 S Main St, Minneola, KS 67865, USA",
    "lat": 37.4429372,
    "lng": -100.01363779999997,
    "rating": 0,
    "place_id": "ChIJ136kyK1UpocR80I483NQhRY",
    "photo": null,
    "name": "Minneola City Library",
    "phone": "(620) 885-4749"
  },
  {
    "id": 219,
    "formatted_address": "309 S Aztec St, Montezuma, KS 67867, USA",
    "lat": 37.5988969,
    "lng": -100.44243449999999,
    "rating": 5,
    "place_id": "ChIJVW-dDP95p4cRxniuMtVHfyA",
    "photo": null,
    "name": "Montezuma Township Library",
    "phone": "(620) 846-7032"
  },
  {
    "id": 220,
    "formatted_address": "100 N Spruce St, Moran, KS 66755, USA",
    "lat": 37.9156499,
    "lng": -95.16878439999999,
    "rating": 0,
    "place_id": "ChIJaQeew-OGuIcRoaRv3oVpWKY",
    "opening_hours": { "open_now": false },
    "photo": null,
    "name": "Moran Public Library",
    "phone": "(620) 237-4334"
  },
  {
    "id": 221,
    "formatted_address": "630 W Main St, Mound City, KS 66056, USA",
    "lat": 38.1429433,
    "lng": -94.81631499999997,
    "rating": 4,
    "place_id": "ChIJ-V6uBVdpx4cR_e-sTPbVGK8",
    "opening_hours": { "open_now": false },
    "photo": "https://maps.googleapis.com/maps/api/place/js/PhotoService.GetPhoto?1sCmRaAAAABJk7n2oKZfDX2osucxmjCXHzZq98dEvsahfPl_lcLyBBRVKi64fBAyFnQP51b8Y37CE5uXd5BesJ0PoCbKfyG6TYjCbD9mVaFkLl46qWLWKujx6MfDFoQvIMnhgB0bV0EhD_6a1qYQGecMzFVpdhfP58GhTl0tAs9VZjd_aSP9xY5JEuDRis1A&3u1024&5m1&2e1&callback=none&key=AIzaSyDpY6WL8JItnEEaReTqil6YNEgvwtSMPgA&token=74932",
    "name": "Mary Sommerville Free Library, Mound City",
    "phone": "(913) 795-2788"
  },
  {
    "id": 222,
    "formatted_address": "318 W Chestnut St, Mound City, KS 66056, USA",
    "lat": 38.141454,
    "lng": -94.80973159999996,
    "rating": 0,
    "place_id": "ChIJ3UW6m_1rx4cRbkF__q11S0k",
    "photo": null,
    "name": "Mound City-Linn County Dist. 4",
    "phone": "(913) 795-2788"
  },
  {
    "id": 223,
    "formatted_address": "411 Hickory St, Mound Valley, KS 67354, USA",
    "lat": 37.2050195,
    "lng": -95.40478339999999,
    "rating": 5,
    "place_id": "ChIJL2SMtjoguIcRcNyM1LSsQGo",
    "photo": "https://maps.googleapis.com/maps/api/place/js/PhotoService.GetPhoto?1sCmRaAAAA-a8DOpz277NnoHAmGZuEr39OMdEb5v6eslAGMa7Gt8SJ3So1OHYFqvN60Vzg2C3hwA0ErF_nRKjAJfo2m2EfqTMzoN-8EKBaCKFXo2xFLU-WBRTssK1Xdvuxas1CAxlrEhBfXzSlhta8aQf2CQvevAc-GhR7mLfijh3sAhUXxt2AhRhx5zc6Ig&3u2988&5m1&2e1&callback=none&key=AIzaSyDpY6WL8JItnEEaReTqil6YNEgvwtSMPgA&token=93950",
    "name": "Mound Valley Library",
    "phone": "(620) 328-3411"
  },
  {
    "id": 224,
    "formatted_address": "220 S Christian Ave, Moundridge, KS 67107, USA",
    "lat": 38.2014518,
    "lng": -97.51902530000001,
    "rating": 4.3,
    "place_id": "ChIJXwiDHIJDu4cRKPpJiV-1aLE",
    "opening_hours": { "open_now": false },
    "photo": null,
    "name": "Moundridge Public Library",
    "phone": "(620) 345-6355"
  },
  {
    "id": 225,
    "formatted_address": "109 S Ohio St, Mt Hope, KS 67108, USA",
    "lat": 37.868331,
    "lng": -97.66554830000001,
    "rating": 5,
    "place_id": "ChIJB9d_YkUuu4cRBazdewAX1j8",
    "photo": null,
    "name": "Mt. Hope Public Library",
    "phone": "(316) 667-2665"
  },
  {
    "id": 226,
    "formatted_address": "408 N 2nd Ave, Mulvane, KS 67110, USA",
    "lat": 37.478271,
    "lng": -97.24441519999999,
    "rating": 4.3,
    "place_id": "ChIJPxVu-2nyuocRuJ_tzASaQPs",
    "opening_hours": { "open_now": false },
    "photo": "https://maps.googleapis.com/maps/api/place/js/PhotoService.GetPhoto?1sCmRaAAAAGHuufYhWJK8lA8wpfVBsDWgWluc--45kFKRMSpItj-bJGnEtVR1vhneZBpTIoOezc7K_OwAHLR5eDv7tlabapOvsYe6WUohFWT9JTC1gqB6NStlUQgyoPNPcViCWUPn3EhDJartNw72xmQaF-8tCAha0GhQZNmunGyjfT7AB0FxiMGNaO6x1_Q&3u1536&5m1&2e1&callback=none&key=AIzaSyDpY6WL8JItnEEaReTqil6YNEgvwtSMPgA&token=64351",
    "name": "Mulvane Public Library",
    "phone": "(316) 777-1211"
  },
  {
    "id": 227,
    "formatted_address": "502 Indiana St, Neodesha, KS 66757, USA",
    "lat": 37.4187784,
    "lng": -95.68015059999999,
    "rating": 4,
    "place_id": "ChIJ-cJW9Hg0uIcRsxYWugBango",
    "opening_hours": { "open_now": false },
    "photo": null,
    "name": "Neodesha-W.A. Rankin Memorial",
    "phone": "(620) 325-3275"
  },
  {
    "id": 228,
    "formatted_address": "113 S Iowa Ave, Ness City, KS 67560, USA",
    "lat": 38.4535389,
    "lng": -99.90378929999997,
    "rating": 3,
    "place_id": "ChIJR4q0z4LYoIcRtRJisPDSa7M",
    "opening_hours": { "open_now": false },
    "photo": "https://maps.googleapis.com/maps/api/place/js/PhotoService.GetPhoto?1sCmRaAAAAihFP5Qs1C8M2_N45net85PASx8NxNxvU3A5TI4gm2opU13cjiBXQxel0VZ7INx7FROaMSWjuNw5yFuWaq5rGkbfCVcmR1WDCQQrpTZKgXNNy5p27eNR4MA6ycbjTESzxEhCwP3iffyYDGrK6eYoGV4TUGhSz30zxsTP8X6q1ObX73s9InicL6w&3u4608&5m1&2e1&callback=none&key=AIzaSyDpY6WL8JItnEEaReTqil6YNEgvwtSMPgA&token=75250",
    "name": "Ness City Public Library",
    "phone": "(785) 798-3415"
  },
  {
    "id": 229,
    "formatted_address": "365 N Main, New Strawn, KS 66839, United States",
    "lat": 38.266071,
    "lng": -95.73875099999998,
    "rating": 0,
    "place_id": "ChIJmVXn5VInuYcRPtP0i-qFrwM",
    "opening_hours": { "open_now": false },
    "photo": "https://maps.googleapis.com/maps/api/place/js/PhotoService.GetPhoto?1sCmRaAAAA3TcS6lYCgLQs-ohUL6RWEq_lZuBqjBk5RL__jWZ25yeZsIYlSCQVAzw69bfTMIWYrwk1x3bMWKKwclu02V4hUmdm__39OIh_lqKbwNaHO6IIj_mXjhrgIuh63uihjTBxEhCgTvolU5Ytj1QzqORYLmynGhQZHcyrgs3xg6IRDQxaARzi5Jpgcw&3u5184&5m1&2e1&callback=none&key=AIzaSyDpY6WL8JItnEEaReTqil6YNEgvwtSMPgA&token=115380",
    "name": "New Strawn Library",
    "phone": "(316) 364-8910"
  },
  {
    "id": 230,
    "formatted_address": "720 Oak St, Newton, KS 67114, USA",
    "lat": 38.0506679,
    "lng": -97.34272959999998,
    "rating": 4.8,
    "place_id": "ChIJ54r7H3oTu4cRPkuMwjgfibo",
    "opening_hours": { "open_now": false },
    "photo": "https://maps.googleapis.com/maps/api/place/js/PhotoService.GetPhoto?1sCmRaAAAALGaI48ft4WCbDqwtswyKeONpOdfcA99BeYtm2C7R8KhipUsU3I6ML5Ql69kyWuiXYs9YCBGhbQq6h1gELCdWaGxiziB0ftuRJgDQTNmwZjPXCg3Hqz125qoQ-6TDZNoFEhBAemrtAJ8GAp4Pez_b7niTGhQ0xvBcDe0rfj5Nz7Z58G66EQ3_xg&3u750&5m1&2e1&callback=none&key=AIzaSyDpY6WL8JItnEEaReTqil6YNEgvwtSMPgA&token=100191",
    "name": "Newton Public Library",
    "phone": "(316) 283-2890"
  },
  {
    "id": 231,
    "formatted_address": "23 N Nickerson St, Nickerson, KS 67561, USA",
    "lat": 38.1473,
    "lng": -98.08190000000002,
    "rating": 5,
    "place_id": "ChIJzSg-4ki8pIcR8ue-3pY3UtA",
    "opening_hours": { "open_now": false },
    "photo": "https://maps.googleapis.com/maps/api/place/js/PhotoService.GetPhoto?1sCmRaAAAAvQ_d14zKMf25lXxvaZmiwkZ_O7DteBhc67e7PUWMeyF35B3hC0mdh3VEDVF3sxB4WQdRiMTy0QEoxo2t7qcRBwjM5rDUUFQ9LXv4KxoIGKqCbYGZDvF83zr3w3eLylscEhDSxv_Da9Zd_dm4nqZyKXQQGhSQwhv_hZ8jBC05rQosmhKMMKzSag&3u1932&5m1&2e1&callback=none&key=AIzaSyDpY6WL8JItnEEaReTqil6YNEgvwtSMPgA&token=98480",
    "name": "Nickerson Public Library",
    "phone": "(620) 422-3361"
  },
  {
    "id": 232,
    "formatted_address": "301 E Ossipee St, Norcatur, KS 67653, USA",
    "lat": 39.8340296,
    "lng": -100.18854499999998,
    "rating": 0,
    "place_id": "ChIJ3VGXV8CVn4cR0A-ChvfYfMU",
    "photo": null,
    "name": "Norcatur Public Library",
    "phone": "(785) 693-4225"
  },
  {
    "id": 233,
    "formatted_address": "2251 Howell St, North Kansas City, MO 64116, USA",
    "lat": 39.1447653,
    "lng": -94.57219800000001,
    "rating": 4,
    "place_id": "ChIJq2sM4r_wwIcRzeZEuPv8mEo",
    "opening_hours": { "open_now": false },
    "photo": "https://maps.googleapis.com/maps/api/place/js/PhotoService.GetPhoto?1sCmRaAAAA3r9T7vpohULLBIqJcv1UIG8GQxHYymHo--9sn4jZ1p1UWJBh4iyF9tpghLa6iKnR9fEnpasxSSwcBAIxwUuZbRXbspyEkQHTPUQ7Mg5ir3jBPaO1U4vYWWZ9NMWOT00fEhD0zbEDr6wlU2vyDftSUdvFGhQfoCx_Pav9mrI12NAzWLG_y8-BAQ&3u4010&5m1&2e1&callback=none&key=AIzaSyDpY6WL8JItnEEaReTqil6YNEgvwtSMPgA&token=118095",
    "name": "North Kansas City Public Library-High School Media Center",
    "phone": "(816) 221-3360"
  },
  {
    "id": 234,
    "formatted_address": "2 Washington Sq, Norton, KS 67654, USA",
    "lat": 39.833295,
    "lng": -99.88794009999998,
    "rating": 5,
    "place_id": "ChIJoR_i9ZJ1n4cRI9NPcE2Kack",
    "opening_hours": { "open_now": false },
    "photo": "https://maps.googleapis.com/maps/api/place/js/PhotoService.GetPhoto?1sCmRaAAAAkdE0Hi5VKku-XAHCuJbnTs4RLtn58xFI1Qm8YS_lW9-33cA1YiN0sJFzpk0fMSIUmevYcFXs8B6_fBvVKHwel6WTHKJ2fcCLiRbEY_0EoFzdb5NWJZZYXIBXQUEftbRREhBNugVSBFbrOLOEyiuOXFV6GhS_rUoZun6aGk3YzBK1sVWOfAUKXw&3u1462&5m1&2e1&callback=none&key=AIzaSyDpY6WL8JItnEEaReTqil6YNEgvwtSMPgA&token=78566",
    "name": "Northwest Kansas Library System",
    "phone": "(785) 877-5148"
  },
  {
    "id": 235,
    "formatted_address": "1 Washington Sq, Norton, KS 67654, USA",
    "lat": 39.8334381,
    "lng": -99.88818879999997,
    "rating": 0,
    "place_id": "ChIJvUJNdox1n4cR-119lLYuYtY",
    "photo": "https://maps.googleapis.com/maps/api/place/js/PhotoService.GetPhoto?1sCmRaAAAA3dU6EUp1wt2evvg_91PKEjTCrE0m4A8zFwHUN4cV_1anp8hTw6Uj0h-T0AqMSfbW6ocR3NshtJk3jNnEZlLEMi4B5WnNwfqIzdlXhqW77Ua54mAkFsAb3B8EjbxqFJ6NEhAM5ImcOvhpFSC_JmzYV6mkGhQAxmYuRHIZhJjhYJ9SD1_u6EZl1A&3u2448&5m1&2e1&callback=none&key=AIzaSyDpY6WL8JItnEEaReTqil6YNEgvwtSMPgA&token=17143",
    "name": "Norton Public Library",
    "phone": "(785) 877-2481"
  },
  {
    "id": 236,
    "formatted_address": "407 Main St, Nortonville, KS 66060, USA",
    "lat": 39.416845,
    "lng": -95.33233189999999,
    "rating": 4.6,
    "place_id": "ChIJI917DeiWv4cRSfWVbfKHUDw",
    "opening_hours": { "open_now": false },
    "photo": null,
    "name": "Nortonville Public Library",
    "phone": "(913) 886-2060"
  },
  {
    "id": 237,
    "formatted_address": "209 Parkway St, Norwich, KS 67118, USA",
    "lat": 37.4582145,
    "lng": -97.84733489999996,
    "rating": 0,
    "place_id": "ChIJEc9lQXQ0pYcRIfs84u9aFtI",
    "opening_hours": { "open_now": false },
    "photo": null,
    "name": "Norwich Public",
    "phone": "(620) 478-2235"
  },
  {
    "id": 238,
    "formatted_address": "700 W 3rd St, Oakley, KS 67748, USA",
    "lat": 39.127953,
    "lng": -100.8615059,
    "rating": 5,
    "place_id": "ChIJJ5dWaDmWCocRHoMFIlq4Gdw",
    "opening_hours": { "open_now": false },
    "photo": "https://maps.googleapis.com/maps/api/place/js/PhotoService.GetPhoto?1sCmRaAAAAn4VJLAQV0o5XTzjSSKc7qenVobuuUL_hhk6Kc8MqBnTFY3YLpprwUofQ5xYe5DC2BMOcDO5DwDnoGCKI7rHIejBkB1w6MRY2BVSJMRBR9pmYEmtLSuGJKc2ijtuOcL-PEhCMdZRG_qnZJkaG9pnIKdQlGhSip2JA10awBIlT0EOfxbcHoHvRKQ&3u4000&5m1&2e1&callback=none&key=AIzaSyDpY6WL8JItnEEaReTqil6YNEgvwtSMPgA&token=73020",
    "name": "Oakley Public Library",
    "phone": "(785) 671-4776"
  },
  {
    "id": 239,
    "formatted_address": "104 E Oak St, Oberlin, KS 67749, USA",
    "lat": 39.8228389,
    "lng": -100.52896620000001,
    "rating": 3,
    "place_id": "ChIJKb29MFPnn4cRTczgsXQe1p4",
    "photo": null,
    "name": "Oberlin City Library",
    "phone": "(785) 475-2412"
  },
  {
    "id": 240,
    "formatted_address": "201 E Park St, Olathe, KS 66061, USA",
    "lat": 38.8817531,
    "lng": -94.81767009999999,
    "rating": 4.4,
    "place_id": "ChIJZV-bufu9wIcRnVJVCpWMWy0",
    "opening_hours": { "open_now": false },
    "photo": "https://maps.googleapis.com/maps/api/place/js/PhotoService.GetPhoto?1sCmRaAAAAo9e6GPBLWbME7mI5QLtJ64oKsQZ5soG422uDHORjwlz0nCJEmWyF21YFeqleJPwxAOb0sRblAFQtmOjHoOZGu-cv9jrS-m686Pd4yLSuWsNldt_q6jSvPWYMEPEoQCHtEhDw5CSaziBopGJF1FR0l5KtGhSLRyB49N2F8zS73jajMjIHe_5iPg&3u640&5m1&2e1&callback=none&key=AIzaSyDpY6WL8JItnEEaReTqil6YNEgvwtSMPgA&token=83710",
    "name": "Olathe Public Library",
    "phone": "(913) 971-6850"
  },
  {
    "id": 241,
    "formatted_address": "515 Main St, Osage City, KS 66523, USA",
    "lat": 38.633206,
    "lng": -95.82675599999999,
    "rating": 5,
    "place_id": "ChIJ58cdkCfRvocRimAkq3xzSRM",
    "opening_hours": { "open_now": false },
    "photo": null,
    "name": "Lieber Public Library, Osage City",
    "phone": "(913) 528-3727"
  },
  {
    "id": 242,
    "formatted_address": "515 Main St, Osage City, KS 66523, USA",
    "lat": 38.633206,
    "lng": -95.82675599999999,
    "rating": 5,
    "place_id": "ChIJ58cdkCfRvocRimAkq3xzSRM",
    "opening_hours": { "open_now": false },
    "photo": null,
    "name": "Osage City Public Library",
    "phone": "(785) 528-3727"
  },
  {
    "id": 243,
    "formatted_address": "527 Brown Ave, Osawatomie, KS 66064, USA",
    "lat": 38.4977419,
    "lng": -94.94988920000003,
    "rating": 4.9,
    "place_id": "ChIJ7w-s7aRTx4cRd8wzPdkLBk8",
    "opening_hours": { "open_now": false },
    "photo": "https://maps.googleapis.com/maps/api/place/js/PhotoService.GetPhoto?1sCmRaAAAApeZG9vlM6Tp7Kfp93RTacsHo7wtc7AvSLcvvbBtEiqdQ73lsCmBD6LRELBUQGp6kw0dggDw7phfy380THHrPZspciOj3GnQG1SxXZQ-ptuuWrvpyYdBcMB1TMhQ_CS-WEhCpDrRchmFIG0Y630YPo0ABGhQ4sfYhm-V-algB47F84PGKUQhsSA&3u4046&5m1&2e1&callback=none&key=AIzaSyDpY6WL8JItnEEaReTqil6YNEgvwtSMPgA&token=120791",
    "name": "Osawatomie Public Library",
    "phone": "(913) 755-2136"
  },
  {
    "id": 244,
    "formatted_address": "325 W Main St, Osborne, KS 67473, USA",
    "lat": 39.4378999,
    "lng": -98.69959340000003,
    "rating": 5,
    "place_id": "ChIJZx2gYRtvoocRDOH04XRCmAI",
    "opening_hours": { "open_now": false },
    "photo": null,
    "name": "Osborne Public Library",
    "phone": "(785) 346-5486"
  },
  {
    "id": 245,
    "formatted_address": "315 Jefferson St, Oskaloosa, KS 66066, USA",
    "lat": 39.215271,
    "lng": -95.31390699999997,
    "rating": 5,
    "place_id": "ChIJG13rYQmev4cRbEVVBe2dr84",
    "opening_hours": { "open_now": false },
    "photo": null,
    "name": "Oskaloosa Public Library",
    "phone": "(785) 863-2475"
  },
  {
    "id": 246,
    "formatted_address": "1501 Tomahawk Trail, Oswego, KS 67356, USA",
    "lat": 37.174525,
    "lng": -95.117232,
    "rating": 5,
    "place_id": "ChIJ5T4oT3X_t4cRyyBHWUQSAXo",
    "photo": "https://maps.googleapis.com/maps/api/place/js/PhotoService.GetPhoto?1sCmRaAAAATPvOfwdTbB4Iyc6d-H3yOYJAY77PbHYJ_OeMRzGDrTy9MmgWEb5ledVm-0-0KKR9GxmLp0XvIOCe9mLd5XhT7CDcv0xKhxdxC5n28kRC37RglSuD2kI3jzd8iqcYqNQOEhADGcXftRxG0g0TAo9j6zB9GhQ8Kdvq-GNjoe_JaiH0U8dtfttzGg&3u6000&5m1&2e1&callback=none&key=AIzaSyDpY6WL8JItnEEaReTqil6YNEgvwtSMPgA&token=113340",
    "name": "Oswego Public",
    "phone": "(620) 795-4921"
  },
  {
    "id": 247,
    "formatted_address": "122 S Main St, Otis, KS 67565, USA",
    "lat": 38.5334831,
    "lng": -99.05155960000002,
    "rating": 0,
    "place_id": "ChIJdeq1gcnlo4cRoWmPqZ3sH0Y",
    "opening_hours": { "open_now": false },
    "photo": "https://maps.googleapis.com/maps/api/place/js/PhotoService.GetPhoto?1sCmRaAAAAcX4I-5KTJsb_kAg0yiXCbw97VSpRGrSvc7PS-LkQ3_IthnxN7sV38ahdPkYy9kbOPZ02DRlrlygDUbOs1iEjah9taPawAWTvgwfj5l1o1Ebw7pCcCVIdZ9owlbCdRLznEhBTr6HcXnqcJWWNTOQ2hIYxGhTpQXt8wxIC2t1jBbCJoK-m2HH4hA&3u2599&5m1&2e1&callback=none&key=AIzaSyDpY6WL8JItnEEaReTqil6YNEgvwtSMPgA&token=86588",
    "name": "Otis Community Library",
    "phone": "(785) 387-2287"
  },
  {
    "id": 248,
    "formatted_address": "105 S Hickory St, Ottawa, KS 66067, USA",
    "lat": 38.6168845,
    "lng": -95.26685599999996,
    "rating": 5,
    "place_id": "ChIJTfv3FdVNv4cReXRaX2ZI2BY",
    "opening_hours": { "open_now": false },
    "photo": "https://maps.googleapis.com/maps/api/place/js/PhotoService.GetPhoto?1sCmRaAAAA5u_w90c_mGPlmPpDlTFsG5RNabDcuGnRz5ItrzeHp_y2ryVfy0qOmNj3jXSFWBtzZP3iT_KVUZsUub4MlnEBxR2Keh1bDM-iwIYyfodlWxrhyCeu9uB-Ujr6cC15ejN2EhDI2yb2uQxm6S7osVGft161GhRu7EmeB_zv05NTP3E6SMRdoTPMiA&3u281&5m1&2e1&callback=none&key=AIzaSyDpY6WL8JItnEEaReTqil6YNEgvwtSMPgA&token=80416",
    "name": "Ottawa Library",
    "phone": "(785) 242-3080"
  },
  {
    "id": 249,
    "formatted_address": "317 Maple St, Overbrook, KS 66524, USA",
    "lat": 38.7782197,
    "lng": -95.55697080000004,
    "rating": 4,
    "place_id": "ChIJ-0dNBaw8v4cRDaeIRglCd6I",
    "opening_hours": { "open_now": false },
    "photo": null,
    "name": "Overbrook Public Library",
    "phone": "(785) 665-7266"
  },
  {
    "id": 250,
    "formatted_address": "9875 W 87th St, Overland Park, KS 66212, USA",
    "lat": 38.9698596,
    "lng": -94.6994656,
    "rating": 4.7,
    "place_id": "ChIJ28bnX2TrwIcRynpha9deuhI",
    "opening_hours": { "open_now": false },
    "photo": "https://maps.googleapis.com/maps/api/place/js/PhotoService.GetPhoto?1sCmRaAAAA4012JCUEOfNiX6m2GcBBpiAZjDdaRF_ZxnDIZViuKA5xuW__vbog35vVmjV6YXxaQyhnKceDZCD-BNWOGHAdyjSymCUnffKERzagjyR75GxzXvCA1aV2f6j2O9O7gUZaEhA9m9q7LgonXQaavr4WBaNCGhSVtN2WoNI46xVvZl4x_byx_rE7yA&3u5332&5m1&2e1&callback=none&key=AIzaSyDpY6WL8JItnEEaReTqil6YNEgvwtSMPgA&token=65793",
    "name": "Johnson County Library",
    "phone": "(913) 495-2400"
  },
  {
    "id": 251,
    "formatted_address": "9311, 9000 151st St, Overland Park, KS 66221, United States",
    "lat": 38.8556505,
    "lng": -94.69081070000004,
    "rating": 4.8,
    "place_id": "ChIJYaBsIlTAwIcRn3f6OG_zeDE",
    "opening_hours": { "open_now": false },
    "photo": "https://maps.googleapis.com/maps/api/place/js/PhotoService.GetPhoto?1sCmRaAAAAJ_oVuW2bsyQ-lhuQkgbTFvzO1E-Qws1FeTIp5Z3KNMkvT-9RSFYVMPK1OKIeMzCjUidQBOw9Gp2xGvte2dD937jk26XYvMHc-ZTIHYsmxOVgAq546hM6lFC9hBZfk4eXEhCtrMgsobrQlvYrYXgxeSHiGhT14yTHoTXrrgdK0Pz9GdgQaLEhXw&3u2048&5m1&2e1&callback=none&key=AIzaSyDpY6WL8JItnEEaReTqil6YNEgvwtSMPgA&token=97565",
    "name": "Johnson County Library, Blue Valley",
    "phone": "(913) 897-8200"
  },
  {
    "id": 252,
    "formatted_address": "9500 Bluejacket Drive, Overland Park, KS 66214, USA",
    "lat": 38.9561684,
    "lng": -94.71267979999999,
    "rating": 4.6,
    "place_id": "ChIJh9xKXkPrwIcRBqeqx-JHkAQ",
    "opening_hours": { "open_now": false },
    "photo": "https://maps.googleapis.com/maps/api/place/js/PhotoService.GetPhoto?1sCmRaAAAAeM07wl7-YGQhx_dwyY3ufTwSeB1lXuzThmlnASOc2eGnW8buHqV-qvnfj-m0SXqzvsiE90KDxmUP-fHYbwlB7i0IVDeXUGTBUX-jHXRKzOjyinjBHh1gcKHQ9mlfdOlCEhBpV55OVCK8dzf8Rd-vIlZeGhRm3vPCecBOPt9tomCrxumRnJDFdg&3u400&5m1&2e1&callback=none&key=AIzaSyDpY6WL8JItnEEaReTqil6YNEgvwtSMPgA&token=30697",
    "name": "Johnson County Library, Oak Park",
    "phone": "(913) 752-8700"
  },
  {
    "id": 253,
    "formatted_address": "13811 Johnson Dr, Shawnee, KS 66216, USA",
    "lat": 39.0216518,
    "lng": -94.74543440000002,
    "rating": 4.7,
    "place_id": "ChIJ6We4gd6SwIcRT-LW5brJJvA",
    "opening_hours": { "open_now": false },
    "photo": "https://maps.googleapis.com/maps/api/place/js/PhotoService.GetPhoto?1sCmRaAAAAbg_H48KOsiG9cwvJ1fO6bB1OepjTpXV-ntwfqW9i-k7RFRVEnjcJbnajsQ8jer_3tyipK3ViF4rqWLsamzyVg3kGRvubyl-veNjJK5dHEK1R5p8eIunCS4MxF2uTsTEWEhAzALJmjyTiu4CLSikCoZD_GhQVuvMQUcJKp4gifZiG8FR-vPcHPA&3u2048&5m1&2e1&callback=none&key=AIzaSyDpY6WL8JItnEEaReTqil6YNEgvwtSMPgA&token=20199",
    "name": "Johnson County Library, Shawnee Mission",
    "phone": "(913) 967-8600"
  },
  {
    "id": 254,
    "formatted_address": "115 S Sumner Ave, Oxford, KS 67119, USA",
    "lat": 37.2735011,
    "lng": -97.16940349999999,
    "rating": 5,
    "place_id": "ChIJ98aXGsiIuocRUM5bkLDD25U",
    "opening_hours": { "open_now": false },
    "photo": null,
    "name": "Oxford Public Library",
    "phone": "(620) 455-2221"
  },
  {
    "id": 255,
    "formatted_address": "309 Main St, Palco, KS 67657, USA",
    "lat": 39.252237,
    "lng": -99.56339200000002,
    "rating": 0,
    "place_id": "ChIJYdQAC_S_oYcRJjJKfkBPqu4",
    "opening_hours": { "open_now": false },
    "photo": "https://maps.googleapis.com/maps/api/place/js/PhotoService.GetPhoto?1sCmRaAAAAT6YopcrtjZe4zrSW_iL8hqFrVsoMW2X1skmZoCnHTLlz-o7EVTCGxfZ6mQYhmNNbHSDWWew9EehDUvcJLWet0wPFHcSo1jw0k59tTNhrrqrJ-7bWhQLHve0Y9n3uSdXGEhAJ7Anw3tsEkRgI_GYyfDYfGhSkugZLQH-VP5cBY6u5oUH86eLgnA&3u1391&5m1&2e1&callback=none&key=AIzaSyDpY6WL8JItnEEaReTqil6YNEgvwtSMPgA&token=34550",
    "name": "Palco Public Library",
    "phone": "(785) 737-4286"
  },
  {
    "id": 256,
    "formatted_address": "101 E Peoria St, Paola, KS 66071, USA",
    "lat": 38.57214949999999,
    "lng": -94.87632639999998,
    "rating": 4.5,
    "place_id": "ChIJRTizIb6ywIcR29uh4c2YWQU",
    "opening_hours": { "open_now": false },
    "photo": "https://maps.googleapis.com/maps/api/place/js/PhotoService.GetPhoto?1sCmRaAAAAbTMiPGqB_TcZjFbOU_4MQ0CW_xqKCZ4NCQ8ax4UneLrwzX7gsnzEpS9chz1duCrPSAKeekDhluMjJFhm3DgICjqa4hW6rx97idTdLJnaJOAQNXpu9GN_H4O6ka3WWtn8EhDGab4zKCdBZa4TlfhC5BBBGhToFZM__FwPdg3lZ3zjhYjWK7cBfg&3u4000&5m1&2e1&callback=none&key=AIzaSyDpY6WL8JItnEEaReTqil6YNEgvwtSMPgA&token=34539",
    "name": "Paola Free Library",
    "phone": "(913) 259-3655"
  },
  {
    "id": 257,
    "formatted_address": "2107 East 61st St N, Park City, KS 67219, USA",
    "lat": 37.795424,
    "lng": -97.31250799999998,
    "rating": 4.8,
    "place_id": "ChIJFZSfflIcu4cRHnswncJE-cQ",
    "opening_hours": { "open_now": false },
    "photo": "https://maps.googleapis.com/maps/api/place/js/PhotoService.GetPhoto?1sCmRaAAAAJohZ_4VqHxHVukaB-tfaHE6WoaBjVn3H6aPvC_rgB3KhEF8UJnjJKO1diGcv6JI9U5PaValUmGyg-OnXoDpqew64XAbQkrjrm9VtID5AvjOCCLEiIoE4AhwxGb-tP55TEhAj9zuMVNUh9lustDOcXhtGGhT4mgvB9y5rW1uwfxasusg2UZUOfw&3u1296&5m1&2e1&callback=none&key=AIzaSyDpY6WL8JItnEEaReTqil6YNEgvwtSMPgA&token=45967",
    "name": "Park City Public Library",
    "phone": "(316) 744-6318"
  },
  {
    "id": 258,
    "formatted_address": "311 S 17th St, Parsons, KS 67357, USA",
    "lat": 37.338246,
    "lng": -95.26115800000002,
    "rating": 5,
    "place_id": "ChIJdS5tAY8auIcRG6LXdV3vA9k",
    "opening_hours": { "open_now": false },
    "photo": "https://maps.googleapis.com/maps/api/place/js/PhotoService.GetPhoto?1sCmRaAAAALANOBO5GO6VVqz8Y6AmgreAytCRrLAW-Uiwld9pjo7gZ0wQw794K809I-K6ecGl2V5hyVxBorbwqBFkW2lC0FlEj9vIPLO2Xif_j_CMgGywC402D9ziVmDWxtg1Asws3EhAW_rrrKwVSpFegfH11zCJfGhQ3nDblZ0yL35BCRKfYKjFGLdgxcQ&3u2322&5m1&2e1&callback=none&key=AIzaSyDpY6WL8JItnEEaReTqil6YNEgvwtSMPgA&token=120469",
    "name": "Parsons Public Library",
    "phone": "(620) 421-5920"
  },
  {
    "id": 259,
    "formatted_address": "23 S Main St, Partridge, KS 67566, USA",
    "lat": 37.9677999,
    "lng": -98.09269990000001,
    "rating": 3,
    "place_id": "ChIJpYOvs53BpIcR-EFeNqAcQps",
    "opening_hours": { "open_now": false },
    "photo": "https://maps.googleapis.com/maps/api/place/js/PhotoService.GetPhoto?1sCmRaAAAAH2p7bmYMYX9tSUaJJUl_3zyiQ6ulJ0qrlO1op16EMef2ekgY_n9w1PyCdBvP-pL1I-eWVGht2Rmb243tGIyQHNy-8jYvrID6etXdVgjuydUV_6dfBpZCap4vE2rm0xevEhAfziBMI9s-PcbxY3me2LQzGhSPrqttPUDzgLj5ihvJ9WqrRyIm4w&3u5344&5m1&2e1&callback=none&key=AIzaSyDpY6WL8JItnEEaReTqil6YNEgvwtSMPgA&token=22486",
    "name": "Partridge Public Library",
    "phone": "(620) 567-2467"
  },
  {
    "id": 260,
    "formatted_address": "214 N Walnut St, Peabody, KS 66866, USA",
    "lat": 38.1670918,
    "lng": -97.10638399999999,
    "rating": 5,
    "place_id": "ChIJmfVq5-x1u4cRltjLOGMpqUs",
    "opening_hours": { "open_now": false },
    "photo": "https://maps.googleapis.com/maps/api/place/js/PhotoService.GetPhoto?1sCmRaAAAAXmrXHB3lJOy0NnoGJtZYJjlRMGKTT69s-y0eWhLBH9Q8K8l8oVWBiBCgGbhGphl0voumWkKeXG8JhnkbdkGF2M16MAeTBqDPNZih2zyQF76NOGtA0_KhM3MPYWVybghpEhAzwknRSVObqRwtZx8x0hrnGhQNNbnJytu_Xhlerp9EZiC2i0HhEg&3u1836&5m1&2e1&callback=none&key=AIzaSyDpY6WL8JItnEEaReTqil6YNEgvwtSMPgA&token=61611",
    "name": "Peabody Township Library",
    "phone": "(620) 983-2502"
  },
  {
    "id": 261,
    "formatted_address": "888 4th St, Phillipsburg, KS 67661, USA",
    "lat": 39.7579206,
    "lng": -99.32283960000001,
    "rating": 1,
    "place_id": "ChIJaQ9n0jJQn4cRnx30RBk_4Cs",
    "opening_hours": { "open_now": false },
    "photo": "https://maps.googleapis.com/maps/api/place/js/PhotoService.GetPhoto?1sCmRaAAAAHTPXmNGiEVzn2vDeYQpT0i2Hu1u5ThFYGPnK8xXktkrtrlWb0GC8nv8YSYrtnr-EP2FwkKd_lNR3mVYP2FvXBK7eMZ1BCwRYtaQt2dW6IA8vmYOMOAXdK5V3uDDCaoNpEhAr1sRkgcQ2QS6JmbeIYMpBGhQzcb0ozFpSvATWkFmOQ3fJRjuUPQ&3u1280&5m1&2e1&callback=none&key=AIzaSyDpY6WL8JItnEEaReTqil6YNEgvwtSMPgA&token=35356",
    "name": "Phillipsburg City Library",
    "phone": "(785) 543-5325"
  },
  {
    "id": 262,
    "formatted_address": "308 N Walnut St, Pittsburg, KS 66762, USA",
    "lat": 37.41068,
    "lng": -94.70738,
    "rating": 4.8,
    "place_id": "ChIJ-S5wxYzCx4cRiFNkfrB-C3I",
    "opening_hours": { "open_now": false },
    "photo": "https://maps.googleapis.com/maps/api/place/js/PhotoService.GetPhoto?1sCmRaAAAAU_aVEnTwQ7qo6r2M0MXzj5Ty5G1-CmM_4VI0xXlbGK9Jk_ly8KRcP1-6Mk6HXjXNoODnO99jbeZctBhx7oLr1nR_5blp3Ep0iz24B9VhPMagzPpE7BDvgflYBWUNKbxVEhDnp6Va1yqGg1ZiJQgMGJzhGhRV3mt6wuszU1VvOUeOui85YSAUSg&3u1461&5m1&2e1&callback=none&key=AIzaSyDpY6WL8JItnEEaReTqil6YNEgvwtSMPgA&token=21288",
    "name": "Pittsburg Public Library",
    "phone": "(620) 231-8110"
  },
  {
    "id": 263,
    "formatted_address": "500 Grand Ave, Plains, KS 67869, USA",
    "lat": 37.2612042,
    "lng": -100.5894624,
    "rating": 4.7,
    "place_id": "ChIJrbmPNJGJp4cRf650kkfu4QM",
    "opening_hours": { "open_now": false },
    "photo": "https://maps.googleapis.com/maps/api/place/js/PhotoService.GetPhoto?1sCmRaAAAAeTPqNnXUsCYg36tbvU5l3RLhD4W4rY5EWb7E9bK4G6SLyTsKtECNRBeot_Dzi6ujoZQJIoRyXQNKbbGoG8D6yr7994df5VC9Zyn9eI2d9Yk2exXJY19Cqoku34wdNXofEhDULa_oJjbPu_i_Oa2G8qjAGhRXJI1iJgAKHKXLjI8CvXrW_RQ8NQ&3u2816&5m1&2e1&callback=none&key=AIzaSyDpY6WL8JItnEEaReTqil6YNEgvwtSMPgA&token=9860",
    "name": "Plains Community Library",
    "phone": "(620) 563-7326"
  },
  {
    "id": 264,
    "formatted_address": "115 E Franklin St, Pomona, KS 66076, USA",
    "lat": 38.6086222,
    "lng": -95.4522629,
    "rating": 4.6,
    "place_id": "ChIJxZTXxyA0v4cRSAppMz6AtQM",
    "opening_hours": { "open_now": false },
    "photo": "https://maps.googleapis.com/maps/api/place/js/PhotoService.GetPhoto?1sCmRaAAAAdJ9fs6RV6CgY7Z8YkKS7AVLBlUrAGYPENuRRdaeeNxwedxba3ytRRUyymFnOS7-FPB6VxAgJ41w67uLSWXGrGMQI1_wGAcVnz--wifYCGKuBLL7KotqqVthEXTQ-qasdEhDyMHxIgv0YyloNa9DL_cIQGhT-QLNyCDGlJsJkiRWrd6oJDTl-HQ&3u1200&5m1&2e1&callback=none&key=AIzaSyDpY6WL8JItnEEaReTqil6YNEgvwtSMPgA&token=73894",
    "name": "Pomona Community Library",
    "phone": "(785) 418-9932"
  },
  {
    "id": 265,
    "formatted_address": "126 N Randall St, Potwin, KS 67123, USA",
    "lat": 37.9393407,
    "lng": -97.01979870000002,
    "rating": 0,
    "place_id": "ChIJCSuQfh2mu4cRBcALarMxbko",
    "opening_hours": { "open_now": false },
    "photo": "https://maps.googleapis.com/maps/api/place/js/PhotoService.GetPhoto?1sCmRZAAAA9uQ0i4vyuUcJ9j_35wx1aM87YBD3-PREjhniar0DZhglywHhai8BzrB5n3T4fcrSUxM_EttyBuU6XCroO8QGGUm01-iO8Qrl1Oe3c4DwIpCyaVMOs5G250_IXiJuqR-rEhDaoUZFntCO14JObYDF_SpzGhRddxaFb6jY_jm02WVpLOUqpLb1DA&3u3743&5m1&2e1&callback=none&key=AIzaSyDpY6WL8JItnEEaReTqil6YNEgvwtSMPgA&token=36893",
    "name": "Potwin Public Library",
    "phone": "(620) 752-3421"
  },
  {
    "id": 266,
    "formatted_address": "207 Kansas St, Prairie View, KS 67664, USA",
    "lat": 39.8323819,
    "lng": -99.57146879999999,
    "rating": 0,
    "place_id": "ChIJyyg4liBqn4cRFrrShSzcFQg",
    "photo": null,
    "name": "Sunshine City Library",
    "phone": "(785) 973-2265"
  },
  {
    "id": 267,
    "formatted_address": "8100 Mission Rd, Prairie Village, KS 66208, USA",
    "lat": 38.982016,
    "lng": -94.63078009999998,
    "rating": 4.7,
    "place_id": "ChIJqwn5m7PuwIcRcoluBnD78W8",
    "opening_hours": { "open_now": false },
    "photo": "https://maps.googleapis.com/maps/api/place/js/PhotoService.GetPhoto?1sCmRaAAAAiM7Hy95ukOcPK6s6bBK1_9FNyhkKmth0uyJY_mPAxfneKm3aZB-h-hPTw1ccEqFqmahIz3e3cCJiEe5luqbdrGqJ87p-u_wyDeI1XQ1L7B-cbEtwUMfMAp3FxYM2Lj6MEhDiTebWscnwigklzdUwiSwXGhSz3_2XUqL8g7uY3AwUgp9DpwSg6w&3u2048&5m1&2e1&callback=none&key=AIzaSyDpY6WL8JItnEEaReTqil6YNEgvwtSMPgA&token=32610",
    "name": "Johnson County Library, Corinth",
    "phone": "(913) 967-8650"
  },
  {
    "id": 268,
    "formatted_address": "401 S Jackson St, Pratt, KS 67124, USA",
    "lat": 37.64259819999999,
    "lng": -98.7411846,
    "rating": 4.5,
    "place_id": "ChIJE5d_blqzpYcR04ZVRhqDfRg",
    "opening_hours": { "open_now": false },
    "photo": "https://maps.googleapis.com/maps/api/place/js/PhotoService.GetPhoto?1sCmRaAAAA3KedzUuPJ8XXzkpObyMRe4VPS25ptNvtZxOb-66Y-yD-x6QcZwRmKTD8-u4m0S2GOzFLUCu6W0DpTLjJhkJpg0MlQ-6X8EwWbme14dmxZRN7DXpuwHjvV9KMe9m0pLlfEhALjb4uNWA7ls9fucSHxF8uGhTnPkb0Tvq8AkD8CziGbs3vT5_bVA&3u4320&5m1&2e1&callback=none&key=AIzaSyDpY6WL8JItnEEaReTqil6YNEgvwtSMPgA&token=48735",
    "name": "Pratt Public Library",
    "phone": "(620) 672-3041"
  },
  {
    "id": 269,
    "formatted_address": "174 W 3rd St, Prescott, KS 66767, USA",
    "lat": 38.06541,
    "lng": -94.69871,
    "rating": 0,
    "place_id": "ChIJY9ZxZZASx4cRLu-UcaEb2Sg",
    "opening_hours": { "open_now": false },
    "photo": "https://maps.googleapis.com/maps/api/place/js/PhotoService.GetPhoto?1sCmRaAAAA76PUM6wWrvQTGLjQsuIy29RVFGEo1uieriufK6vebIhfUJEa-GwfPuAXPJNUfcwMjyspO1gID53e7lsDwJtqMgoucdwI45bvxPeeqYp0uOo-je4hjGkWnebETT5WNK4IEhAOkJc4PrS-emPnvdqvze6SGhT0ThlWjddhQKKOtYpuBfwCmBlEVw&3u2972&5m1&2e1&callback=none&key=AIzaSyDpY6WL8JItnEEaReTqil6YNEgvwtSMPgA&token=9191",
    "name": "Prescott City Library",
    "phone": "(913) 471-4593"
  },
  {
    "id": 270,
    "formatted_address": "119 W Main St, Pretty Prairie, KS 67570, USA",
    "lat": 37.7807252,
    "lng": -98.0197066,
    "rating": 0,
    "place_id": "ChIJu4BcDGbZpIcRH7rr2j6gzPU",
    "photo": null,
    "name": "Pretty Prairie Public Library",
    "phone": "(620) 459-6392"
  },
  {
    "id": 271,
    "formatted_address": "404 N Broadway Ave, Protection, KS 67127, USA",
    "lat": 37.2043039,
    "lng": -99.4839427,
    "rating": 0,
    "place_id": "ChIJw55Xp0QUpocR2hQlUClRyvo",
    "opening_hours": { "open_now": false },
    "photo": null,
    "name": "Protection Township Library",
    "phone": "(620) 622-4886"
  },
  {
    "id": 272,
    "formatted_address": "411 Main St, Quinter, KS 67752, USA",
    "lat": 39.06773889999999,
    "lng": -100.23491469999999,
    "rating": 4.3,
    "place_id": "ChIJMZBv9fJCoIcROL6QntPwTqM",
    "photo": null,
    "name": "Jay Johnson Public Library",
    "phone": "(785) 754-2171"
  },
  {
    "id": 273,
    "formatted_address": "107 Main St, Randall, KS 66963, USA",
    "lat": 39.6412907,
    "lng": -98.04381769999998,
    "rating": 0,
    "place_id": "ChIJaxiZgMqmoocR9aiGNSFNOsY",
    "photo": null,
    "name": "Randall Public Library",
    "phone": "(785) 739-2331"
  },
  {
    "id": 274,
    "formatted_address": "411 Vermont Ave, Ransom, KS 67572, USA",
    "lat": 38.6337433,
    "lng": -99.93146560000002,
    "rating": 0,
    "place_id": "ChIJlzjqO5HhoIcR8tmUW8JZ-so",
    "photo": null,
    "name": "Ransom Public Library",
    "phone": "(785) 731-2855"
  },
  {
    "id": 275,
    "formatted_address": "401 Pawnee Avenue, Republic, KS 66964, USA",
    "lat": 39.9237025,
    "lng": -97.82171579999999,
    "rating": 0,
    "place_id": "ChIJEemilakdmIcRM19zkelwn7U",
    "opening_hours": { "open_now": false },
    "photo": null,
    "name": "Rae Hobson Memorial Library",
    "phone": "(785) 361-2481"
  },
  {
    "id": 276,
    "formatted_address": "107 E Central Ave, Richmond, KS 66080, USA",
    "lat": 38.4014567,
    "lng": -95.25574899999998,
    "rating": 4.5,
    "place_id": "ChIJ3T09rE-wuIcR5yqvTqzF034",
    "photo": null,
    "name": "Richmond Public Library",
    "phone": "(785) 835-6163"
  },
  {
    "id": 277,
    "formatted_address": "115 S Broadway St, Riley, KS 66531, USA",
    "lat": 39.2981713,
    "lng": -96.82528660000003,
    "rating": 5,
    "place_id": "ChIJc8kfEPC5vYcRq2ruZBwErCM",
    "opening_hours": { "open_now": false },
    "photo": null,
    "name": "Riley City Library",
    "phone": "(785) 485-2978"
  },
  {
    "id": 278,
    "formatted_address": "5120 Cedar St, Roeland Park, KS 66205, USA",
    "lat": 39.0357828,
    "lng": -94.64231940000002,
    "rating": 4.2,
    "place_id": "ChIJTyLph3buwIcR7yr6126kDBs",
    "opening_hours": { "open_now": false },
    "photo": "https://maps.googleapis.com/maps/api/place/js/PhotoService.GetPhoto?1sCmRaAAAANxw6WaodCxYuyulAhF0ECNjuyjl2z1-3kFLPl3x39PyOl5Njuh6s-7E_OxArpJgnEp3XXkDKB9juzTSHDApA7hrI7SA2YFNbY0mm0hOFeGJIpyoDnkKNvWN1F8waITSpEhCCFvtd3YLaioveDepfyxopGhSrkHjBgvRDAeOaQpRDVWIQMCjEbQ&3u2048&5m1&2e1&callback=none&key=AIzaSyDpY6WL8JItnEEaReTqil6YNEgvwtSMPgA&token=118447",
    "name": "Johnson County Library, Cedar Roe",
    "phone": "(913) 384-8547"
  },
  {
    "id": 279,
    "formatted_address": "306 N Rose Hill Rd, Rose Hill, KS 67133, USA",
    "lat": 37.56117,
    "lng": -97.13491499999998,
    "rating": 5,
    "place_id": "ChIJo_rI7Kf3uocRVj_7wIuuWw8",
    "opening_hours": { "open_now": false },
    "photo": "https://maps.googleapis.com/maps/api/place/js/PhotoService.GetPhoto?1sCmRaAAAAVBsV6uNsPAxBNghFFvEDs0cA13s6W0BtPfnk-ZRF5WOknl1LLNiFRcOKvexGxFv8poH8h-5e2bDCunPxJrM8OHi-teudo87uApclKKkWnVjnEyaR_XHc5yZJmIrA0zDLEhD9hL3DFVy9bapWOZ-bkAE5GhRWL9kYfw69ZLEsRSZcTyvJ85wYlA&3u768&5m1&2e1&callback=none&key=AIzaSyDpY6WL8JItnEEaReTqil6YNEgvwtSMPgA&token=86293",
    "name": "Rose Hill Public Library",
    "phone": "(316) 776-3013"
  },
  {
    "id": 280,
    "formatted_address": "407 Main St, Rossville, KS 66533, USA",
    "lat": 39.1385792,
    "lng": -95.9523949,
    "rating": 3.3,
    "place_id": "ChIJOdB6RkX2vocRo0q8kyhKT50",
    "opening_hours": { "open_now": false },
    "photo": "https://maps.googleapis.com/maps/api/place/js/PhotoService.GetPhoto?1sCmRaAAAAMT7MQ_2-L-DjkhwzTgb5tHHgc-H5dkdearUh-EanytLu48GYrtrxypSrw0FFoYBSeYbuvyn1th9dZ3idiNAS12_khb32Hz8bTwYpReU1X37O_hE_aN0VZJ_XXCq-gRPrEhB7LLrJEt4qUVgjgkUQ4FTeGhSKIVirbONtLtzePPQy3SMv63jErg&3u2592&5m1&2e1&callback=none&key=AIzaSyDpY6WL8JItnEEaReTqil6YNEgvwtSMPgA&token=6508",
    "name": "Rossville Community Library",
    "phone": "(785) 584-6454"
  },
  {
    "id": 281,
    "formatted_address": "126 E Wisconsin St, Russell, KS 67665, USA",
    "lat": 38.8909831,
    "lng": -98.85899740000002,
    "rating": 5,
    "place_id": "ChIJyyhDXI3Jo4cRGOciOvRxgBY",
    "opening_hours": { "open_now": false },
    "photo": "https://maps.googleapis.com/maps/api/place/js/PhotoService.GetPhoto?1sCmRaAAAAzi1nI5TwTvb6tL-i6tp4H5MbpFN642ZigdzpliYMvvwB5XxFWi8uiDb9ZjhAxl7p0DWQuhw1SbNR6SFuPwbWPvo9ow3YmBDzU56LjUXOdCyhc5gQLXLaAUhZxmB-eBJpEhAUcqj88zwVNW_diDpgkBXAGhSUgH5lp2HWinUdAaOc5gzKe3OTnA&3u2048&5m1&2e1&callback=none&key=AIzaSyDpY6WL8JItnEEaReTqil6YNEgvwtSMPgA&token=110556",
    "name": "Russell Public Library",
    "phone": "(785) 483-2742"
  },
  {
    "id": 282,
    "formatted_address": "915 Virginia St, Sabetha, KS 66534, USA",
    "lat": 39.9021893,
    "lng": -95.80185410000001,
    "rating": 0,
    "place_id": "ChIJ6Z5EY0aBlYcRsxqeIXTqojc",
    "opening_hours": { "open_now": false },
    "photo": "https://maps.googleapis.com/maps/api/place/js/PhotoService.GetPhoto?1sCmRaAAAAzAoLVhbVLZgum-x71eumUNOKYP2hMHJqph6YYHS2wKIxMB5Oi6aj8nlWJILrL0doxF0OzkKoI2x9sXu3-1gzPLtdesehZX9ynD3zZYhJfuOvSEyU-UrPuX4Y7dmJSBAPEhDA1-iyApFOTIbg6ST40lC_GhSR2Rh6KaCg8Ixhmvu7hT8VwWxBHg&3u2560&5m1&2e1&callback=none&key=AIzaSyDpY6WL8JItnEEaReTqil6YNEgvwtSMPgA&token=99969",
    "name": "Mary Cotton Pubic Library",
    "phone": "(785) 284-3160"
  },
  {
    "id": 283,
    "formatted_address": "301 W Elm St, Salina, KS 67401, USA",
    "lat": 38.8445523,
    "lng": -97.61133699999999,
    "rating": 4.8,
    "place_id": "ChIJ6SZ-oIrFvIcRUBakhS8BsDg",
    "opening_hours": { "open_now": false },
    "photo": "https://maps.googleapis.com/maps/api/place/js/PhotoService.GetPhoto?1sCmRaAAAA05cL6PfTpirJ1nZJnh2spGlEkJvzRrMuKeNP7J0D1wX2dasi1UvqRJHl6LNfqa5B9vjAgvFC3kmW-BtU04KOIg2FLK7OH4UNx2k4rFhKqmwp4KMHWCx1cIwwe1G_qiFrEhB71PI2gAM8U7t09DZ_5XJoGhTHZaFNQjfvOZV-Lwv53UGS_Pycnw&3u3825&5m1&2e1&callback=none&key=AIzaSyDpY6WL8JItnEEaReTqil6YNEgvwtSMPgA&token=107655",
    "name": "Salina Public Library",
    "phone": "(785) 825-4624"
  },
  {
    "id": 284,
    "formatted_address": "105 Sequoyah St, Satanta, KS 67870, USA",
    "lat": 37.43926099999999,
    "lng": -100.98590660000002,
    "rating": 4.7,
    "place_id": "ChIJY2k9pp5KCIcRuHy67pRDiM8",
    "opening_hours": { "open_now": false },
    "photo": null,
    "name": "Dudley Township Library",
    "phone": "(620) 649-2213"
  },
  {
    "id": 285,
    "formatted_address": "101 S Walnut St, Savonburg, KS 66772, USA",
    "lat": 37.7483912,
    "lng": -95.14315669999996,
    "rating": 0,
    "place_id": "ChIJAx8cYX15uIcRplNTIUM47dU",
    "photo": "https://maps.googleapis.com/maps/api/place/js/PhotoService.GetPhoto?1sCmRaAAAAkH6IXU6ofbuLdg_Rv7nGYbdmszx_0Dw7JUD5BN7hmD1Lhr9N-DyaVaC_B-3-uY0azYKG8_n5vhxKXir0L0C_hENh5D6la9DOZ5M1Hw5t5bKt8NoKxuOtHW032FA_REgMEhAttMRqG0kvAbxbx8CHtSMSGhQzYauBh8gn8bHccTUzj2JVKZia6Q&3u2666&5m1&2e1&callback=none&key=AIzaSyDpY6WL8JItnEEaReTqil6YNEgvwtSMPgA&token=110974",
    "name": "Savonburg Public Library",
    "phone": "(620) 754-3835"
  },
  {
    "id": 286,
    "formatted_address": "409 4th St, Scandia, KS 66966, USA",
    "lat": 39.7963501,
    "lng": -97.78464610000003,
    "rating": 0,
    "place_id": "ChIJ9ZIe6f0BmIcR6ilkc4T-q1k",
    "photo": null,
    "name": "Scandia City Library",
    "phone": "(785) 335-2271"
  },
  {
    "id": 287,
    "formatted_address": "110 W 8th St, Scott City, KS 67871, USA",
    "lat": 38.4794698,
    "lng": -100.90702399999998,
    "rating": 3.3,
    "place_id": "ChIJh3-PnkxrCocRikW4VjBNTcA",
    "opening_hours": { "open_now": false },
    "photo": "https://maps.googleapis.com/maps/api/place/js/PhotoService.GetPhoto?1sCmRaAAAA3ut9gsopM3CC_GO2BFknkEA7XdGpOjc006qDI6l9aH0S3Gvfpl7rNJiQalH0sZ9CWveh9fRxQaP4gy0dTAdqjt1MQTv19WISkIB2TrIoJbmSPi3GuEB62PhKmobNssJqEhDuJRnuRed_JfZnQNs_uKnXGhSQYEHaqOnVtOXUavCwvpa1nzKB6g&3u3024&5m1&2e1&callback=none&key=AIzaSyDpY6WL8JItnEEaReTqil6YNEgvwtSMPgA&token=127822",
    "name": "Scott County Library",
    "phone": "(620) 872-5341"
  },
  {
    "id": 288,
    "formatted_address": "115 N Chautauqua St, Sedan, KS 67361, USA",
    "lat": 37.1270364,
    "lng": -96.18683149999998,
    "rating": 5,
    "place_id": "ChIJl1msDoVYt4cRoXUzJ_yZqNU",
    "opening_hours": { "open_now": false },
    "photo": "https://maps.googleapis.com/maps/api/place/js/PhotoService.GetPhoto?1sCmRaAAAAp8EzC6Uw470cGJjROYvEFZCJRecsOkCe2su14AijP0yXcme9Lo19FyyBTL47Z8DnxBe3wWc1puy_5aSVzCNbXFV44R31qChtS3lzZJ7dfc9qS7613v1mvyv8D1yAOoupEhAlLQXvLf3x1FmAsIHkOjHIGhRPELnkzu221hlGCeDLJ--ji6VxHQ&3u2988&5m1&2e1&callback=none&key=AIzaSyDpY6WL8JItnEEaReTqil6YNEgvwtSMPgA&token=108728",
    "name": "Sedan Public Library",
    "phone": "(620) 725-3405"
  },
  {
    "id": 289,
    "formatted_address": "501 N Commercial Ave, Sedgwick, KS 67135, USA",
    "lat": 37.9173591,
    "lng": -97.42465759999999,
    "rating": 5,
    "place_id": "ChIJ202P4fYXu4cRq-5U21u_tRI",
    "photo": null,
    "name": "Sedgwick-Lillian Tear",
    "phone": "(316) 772-5727"
  },
  {
    "id": 290,
    "formatted_address": "1930, 606 Main St, Seneca, KS 66538, United States",
    "lat": 39.834032,
    "lng": -96.06460449999997,
    "rating": 3,
    "place_id": "ChIJuTRy9LGKlYcRzkRtgPmJCHE",
    "opening_hours": { "open_now": false },
    "photo": "https://maps.googleapis.com/maps/api/place/js/PhotoService.GetPhoto?1sCmRaAAAAqr5KhoNN0qROScfYN4GPtZJ1vyw9XSReFHw8Kv13gZL4xGlOGzuib7Ag_xdLu6XuY5DO4thn9oftEqsKPwqB5DmiMdX23ipWoQI5zLOZ4RdUWRcUC1_LvrgHmvzRA1p2EhDgSaUcKLlEv8Oj0wSptCh_GhQJGn81sBYEGZcd36XG4RA5et8Isg&3u3456&5m1&2e1&callback=none&key=AIzaSyDpY6WL8JItnEEaReTqil6YNEgvwtSMPgA&token=104257",
    "name": "Seneca Free Library",
    "phone": "(785) 336-2377"
  },
  {
    "id": 291,
    "formatted_address": "102 Broadway St, Sharon, KS 67138, USA",
    "lat": 37.2492722,
    "lng": -98.4202277,
    "rating": 0,
    "place_id": "ChIJO5NAOp92pYcRszY5ZtnXfxI",
    "photo": null,
    "name": "Sharon Wisner Library",
    "phone": "(620) 294-5472"
  },
  {
    "id": 292,
    "formatted_address": "102 Broadway St, Sharon, KS 67138, USA",
    "lat": 37.2492722,
    "lng": -98.4202277,
    "rating": 0,
    "place_id": "ChIJO5NAOp92pYcRszY5ZtnXfxI",
    "photo": null,
    "name": "Wisner Library",
    "phone": "(620) 294-5472"
  },
  {
    "id": 293,
    "formatted_address": "111 W 2nd, Sharon Springs, KS 67758, USA",
    "lat": 38.8959945,
    "lng": -101.75252660000001,
    "rating": 5,
    "place_id": "ChIJD3bY5YFtC4cRWDf38ltXooc",
    "opening_hours": { "open_now": false },
    "photo": null,
    "name": "Sharon Springs Public Library",
    "phone": "(785) 852-4685"
  },
  {
    "id": 294,
    "formatted_address": "13811 Johnson Dr, Shawnee, KS 66216, USA",
    "lat": 39.0216518,
    "lng": -94.74543440000002,
    "rating": 4.7,
    "place_id": "ChIJ6We4gd6SwIcRT-LW5brJJvA",
    "opening_hours": { "open_now": false },
    "photo": "https://maps.googleapis.com/maps/api/place/js/PhotoService.GetPhoto?1sCmRaAAAAYzPkvorbwJdJ2LOwc9UwR4GHA2G-npw1hkXPHLRjURCcdj-DuQMpBNHtA5jeM_qarn786vwQrtgrETWgaZg765LvshNfUHq_naPnulv9atWjF-4_Emp1OHSBoG_LdxNmEhCSIZIHd9U00MTPhZMH7dkOGhTJ1HbDK3_VjboklGN1tr3nz6BfnQ&3u2048&5m1&2e1&callback=none&key=AIzaSyDpY6WL8JItnEEaReTqil6YNEgvwtSMPgA&token=112139",
    "name": "Johnson County Library, Shawnee",
    "phone": "(913) 962-3800"
  },
  {
    "id": 295,
    "formatted_address": "201 Railroad St, Silver Lake, KS 66539, USA",
    "lat": 39.105403,
    "lng": -95.85974590000001,
    "rating": 4.8,
    "place_id": "ChIJpVrcMJz5vocRYgllqiaJKEU",
    "opening_hours": { "open_now": false },
    "photo": null,
    "name": "Silver Lake Library",
    "phone": "(785) 582-5141"
  },
  {
    "id": 296,
    "formatted_address": "117 W Court St, Smith Center, KS 66967, USA",
    "lat": 39.7765565,
    "lng": -98.78679769999997,
    "rating": 5,
    "place_id": "ChIJVwGAsq6ZmIcRbw-xtrvlKO8",
    "opening_hours": { "open_now": false },
    "photo": null,
    "name": "Smith Center Public Library",
    "phone": "(785) 282-3361"
  },
  {
    "id": 297,
    "formatted_address": "108 N Walnut St, Solomon, KS 67480, USA",
    "lat": 38.9190293,
    "lng": -97.37046629999998,
    "rating": 0,
    "place_id": "ChIJ82Rop6HovIcRM-QHqyCY19c",
    "photo": null,
    "name": "Solomon Public Library",
    "phone": "(785) 655-3521"
  },
  {
    "id": 298,
    "formatted_address": "104 Baird St, South Haven, KS 67140, USA",
    "lat": 37.0484844,
    "lng": -97.40174350000001,
    "rating": 4,
    "place_id": "ChIJhSPBsHN1sIcRcA9OxVcfpcI",
    "photo": null,
    "name": "South Haven Township Library",
    "phone": "(620) 892-5268"
  },
  {
    "id": 299,
    "formatted_address": "321 N Main St, South Hutchinson, KS 67505, USA",
    "lat": 38.0324156,
    "lng": -97.94099070000004,
    "rating": 4.8,
    "place_id": "ChIJwZ-2JxTIpIcR_Fcjfx9UkEw",
    "photo": "https://maps.googleapis.com/maps/api/place/js/PhotoService.GetPhoto?1sCmRaAAAAa8t43x3pN1TUb-DvgryFoCEnh0EAnuRpuMtJPDW-j-2IWfTJ9hg_504tw8n0uhi6pdqKyyqhqgU11zSSyWeI0TGzUW24QSb7Df6m-uTe8i0LPHW3-rKpNhGf9TUNChWHEhAH6h1A-tn6A2rwtQKJjC9IGhTnhNXHPzxkC_NBFIkZa3BNyvsE8w&3u5312&5m1&2e1&callback=none&key=AIzaSyDpY6WL8JItnEEaReTqil6YNEgvwtSMPgA&token=73899",
    "name": "South Central Kansas Library System",
    "phone": "(620) 663-3211"
  },
  {
    "id": 300,
    "formatted_address": "412 N Main St, Spearville, KS 67876, USA",
    "lat": 37.8504379,
    "lng": -99.75684109999997,
    "rating": 0,
    "place_id": "ChIJaY2st0LmpocRzPxp41MSSiI",
    "opening_hours": { "open_now": false },
    "photo": null,
    "name": "Spearville Township Library",
    "phone": "(620) 385-2501"
  },
  {
    "id": 301,
    "formatted_address": "109 S Webster St, Spring Hill, KS 66083, USA",
    "lat": 38.74293850000001,
    "lng": -94.82580310000003,
    "rating": 5,
    "place_id": "ChIJg1TG4z26wIcRj3wPeOXFvTE",
    "opening_hours": { "open_now": false },
    "photo": "https://maps.googleapis.com/maps/api/place/js/PhotoService.GetPhoto?1sCmRaAAAAMDW-YJKsYU1dwhXDaJ83g0Bhy12RbWST7yuqDKFMynZBMtW6OUF48psQQpWDgYw22EC-4ET_6jvwUEfTn2po_vUKIQp0nNsfI_IsI4hjVbstA236-vjl1SGY9_-G_u3AEhCPvfEtpNugpNoAicHE4APTGhRA_zsa2nXhTrLMBIo9qEHXKektXQ&3u2048&5m1&2e1&callback=none&key=AIzaSyDpY6WL8JItnEEaReTqil6YNEgvwtSMPgA&token=22201",
    "name": "Johnson County Library, Spring Hill",
    "phone": "(913) 592-3232"
  },
  {
    "id": 302,
    "formatted_address": "717 Central St, St Paul, KS 66771, USA",
    "lat": 37.5191274,
    "lng": -95.17264410000001,
    "rating": 0,
    "place_id": "ChIJacVXuM4MuIcRFrA241vQW-o",
    "opening_hours": { "open_now": false },
    "photo": null,
    "name": "Graves Memorial Public Library",
    "phone": "(620) 449-2001"
  },
  {
    "id": 303,
    "formatted_address": "121 N Scott St, St Francis, KS 67756, USA",
    "lat": 39.7749454,
    "lng": -101.80169209999997,
    "rating": 1,
    "place_id": "ChIJHRJcUKaWdIcRkqKlW9qQxoY",
    "opening_hours": { "open_now": false },
    "photo": "https://maps.googleapis.com/maps/api/place/js/PhotoService.GetPhoto?1sCmRaAAAA3z9pRxFPTxMTfB9w9UBM8gEVsZkQtWauVLXK1JlT-RQEOffV9aAmOtdxJHnkNBWMgmeGKKtYBKPM0gxDK78BVFuZiobhO7d9rUE6frGHAUI6KgpeLBqGIeMhzIHknszsEhCPXeEeRHCiHx1TMdU8xb5aGhQCvV85Of-eEff4vx4149BGOEhscw&3u2576&5m1&2e1&callback=none&key=AIzaSyDpY6WL8JItnEEaReTqil6YNEgvwtSMPgA&token=57744",
    "name": "St. Francis Public Library",
    "phone": "(785) 332-3292"
  },
  {
    "id": 304,
    "formatted_address": "406 N Monroe St, St John, KS 67576, USA",
    "lat": 38.0025427,
    "lng": -98.75916059999997,
    "rating": 5,
    "place_id": "ChIJN32ieRBqpIcRoEOq_3jejeY",
    "opening_hours": { "open_now": false },
    "photo": null,
    "name": "Ida Long Goodman Memorial Library",
    "phone": "(620) 549-3227"
  },
  {
    "id": 305,
    "formatted_address": "306 N 5th St, St Marys, KS 66536, USA",
    "lat": 39.19616,
    "lng": -96.06840599999998,
    "rating": 3.4,
    "place_id": "ChIJG52fe3hgvocRbUI5aVitBEM",
    "opening_hours": { "open_now": false },
    "photo": "https://maps.googleapis.com/maps/api/place/js/PhotoService.GetPhoto?1sCmRaAAAAuXc0wLR2zXdtE_AVlfD4hu36tP1kPvCpLpxRe-ofRmD538YJfWY4uX04Dg6-_lAUAB0Yqz5J_VI376RahQKDiaVPwdoGAiIvuPfhowBiclp7dp-rJmfqBWuNtx-pGt_kEhDdmVbA8lkLwP3eMfnMC5qVGhReqSw9gn_BqCIiVAXaicexdpcYnA&3u2592&5m1&2e1&callback=none&key=AIzaSyDpY6WL8JItnEEaReTqil6YNEgvwtSMPgA&token=65083",
    "name": "Pottawatomie Wabaunsee Regional Library",
    "phone": "(785) 437-2778"
  },
  {
    "id": 306,
    "formatted_address": "106 N Union Ave, Stafford, KS 67578, USA",
    "lat": 37.9621924,
    "lng": -98.60149739999997,
    "rating": 0,
    "place_id": "ChIJ-dNOCLNdpIcR4dlAHM8nQS4",
    "opening_hours": { "open_now": false },
    "photo": null,
    "name": "Nora E. Larabee Memorial Library",
    "phone": "(620) 234-5762"
  },
  {
    "id": 307,
    "formatted_address": "138 N Broadway Ave, Sterling, KS 67579, USA",
    "lat": 38.21128,
    "lng": -98.20654000000002,
    "rating": 5,
    "place_id": "ChIJe4jiGu-ZpIcRy9ZoOlpp7yA",
    "opening_hours": { "open_now": false },
    "photo": "https://maps.googleapis.com/maps/api/place/js/PhotoService.GetPhoto?1sCmRaAAAA_jLUqLN3nkcU8P0RjqBm1yJcZuaWmEPPq_Mf_PO0wJR9ukSLdE4rs8JG9-RDhpdyBelg0WW2mDWdW78gVI5YRFBOh-Oeurar31GDFM5HepjCspiBTWkKww5HTkzAo9htEhAjKRZvX6p3ZCYPrg_gvVhIGhQzUePzZMNEvM_ZEBUuwb3k75k0Lg&3u1024&5m1&2e1&callback=none&key=AIzaSyDpY6WL8JItnEEaReTqil6YNEgvwtSMPgA&token=64755",
    "name": "Sterling Free Public Library",
    "phone": "(620) 278-3191"
  },
  {
    "id": 308,
    "formatted_address": "Stockton, KS 67669, USA",
    "lat": 39.4380656,
    "lng": -99.26509670000002,
    "place_id": "ChIJZTLUP033oYcR0_O7WqWABE8",
    "photo": "https://maps.googleapis.com/maps/api/place/js/PhotoService.GetPhoto?1sCmRaAAAAqbVZCrxfXAIsOsjqTpk10BdqI3zgSuX_K_ztH-vAHsY3Q9oKldUricMKZ-baW2-x4-51Oj8QSBVfy2UPiORAsYWKvHLb-QKukWP5At7-BWnuDYZ6hbulpYjQn2vS-T4zEhCuEckL8STIEb0auomHD9hkGhTC3l_TIAE4EjUp4SDrrJ5fttRGpA&3u3264&5m1&2e1&callback=none&key=AIzaSyDpY6WL8JItnEEaReTqil6YNEgvwtSMPgA&token=90229",
    "name": "Stockton",
    "phone": "(785) 425-6372"
  },
  {
    "id": 309,
    "formatted_address": "700 W Chouteau Ave, Sublette, KS 67877, USA",
    "lat": 37.479898,
    "lng": -100.85212710000002,
    "rating": 5,
    "place_id": "ChIJASuND9PMCYcRtRGDeHK7ECs",
    "opening_hours": { "open_now": false },
    "photo": null,
    "name": "Haskell Township Library",
    "phone": "(620) 675-2771"
  },
  {
    "id": 310,
    "formatted_address": "Summerfield, KS 66541, USA",
    "lat": 39.9972231,
    "lng": -96.35029170000001,
    "rating": 0,
    "place_id": "ChIJXboVSxHjlYcRpBhltlzPjPo",
    "photo": null,
    "name": "Summerfield Public Library",
    "phone": "(785) 244-6531"
  },
  {
    "id": 311,
    "formatted_address": "118 S Main St, Sylvan Grove, KS 67481, USA",
    "lat": 39.0103027,
    "lng": -98.39363409999999,
    "rating": 0,
    "place_id": "ChIJNwWCBwMCo4cRVFKto2EwGWg",
    "opening_hours": { "open_now": false },
    "photo": null,
    "name": "Sylvan Grove Public Library",
    "phone": "(785) 526-7188"
  },
  {
    "id": 312,
    "formatted_address": "200 Neosho St, Thayer, KS 66776, USA",
    "lat": 37.4879379,
    "lng": -95.47194569999999,
    "rating": 0,
    "place_id": "ChIJ5zk_jzY_uIcRrhhY36TrmTo",
    "opening_hours": { "open_now": false },
    "photo": null,
    "name": "Thayer Friday Reading Club City Library",
    "phone": "(620) 839-5646"
  },
  {
    "id": 313,
    "formatted_address": "303 Bury St, Tonganoxie, KS 66086, USA",
    "lat": 39.1099743,
    "lng": -95.087357,
    "rating": 4,
    "place_id": "ChIJ61oclMZ9v4cRAKnlOzLnCFc",
    "opening_hours": { "open_now": false },
    "photo": "https://maps.googleapis.com/maps/api/place/js/PhotoService.GetPhoto?1sCmRZAAAAeazVOAvO2FMUSs6Qf5zZtPf_pX4LmF3VnrlSoI344MvTUd_WzVI7T0nLO2rFH18dLuiHUU2hVDUdvuiFMM_Atx-dcp0zdt6loxn20Up9Anl7MWtWYjkHyZScK3BbBZdZEhCne1EZPBNAL8w6Kt-Xai_2GhTl7xpqMJ-UrekIf1LJK_lYPM5HJA&3u4032&5m1&2e1&callback=none&key=AIzaSyDpY6WL8JItnEEaReTqil6YNEgvwtSMPgA&token=126625",
    "name": "Tonganoxie Public Library",
    "phone": "(913) 845-3281"
  },
  {
    "id": 314,
    "formatted_address": "6425 SW 6th Ave, Topeka, KS 66615, USA",
    "lat": 39.0558882,
    "lng": -95.7751255,
    "rating": 4.6,
    "place_id": "ChIJAyeHMPe3s4cRutT9dq9-POM",
    "opening_hours": { "open_now": false },
    "photo": "https://maps.googleapis.com/maps/api/place/js/PhotoService.GetPhoto?1sCmRaAAAAMdD4Q0IcNwJiE4dLa1vx3bPR0HsUx9g1ek8d_oetVgnY6hA4VADIii3DA-iP7CcirKwEsVclMp44o1pxeZuLwHsPVnLxDQsqZx8aA6uGY1C0aZsCEgV2QGdLYLouEbbNEhANTUNwI9feSO9k2GR8lT1HGhRtLIxm6vpSs78C0tuI_BHtIyhTAA&3u2560&5m1&2e1&callback=none&key=AIzaSyDpY6WL8JItnEEaReTqil6YNEgvwtSMPgA&token=71164",
    "name": "Kansas State Historical Society",
    "phone": "(785) 272-8682"
  },
  {
    "id": 315,
    "formatted_address": "1515 SW 10th Ave, Topeka, KS 66604, USA",
    "lat": 39.0507443,
    "lng": -95.69654000000003,
    "rating": 4.7,
    "place_id": "ChIJE-8UR_oCv4cRc8JcBb9pr0U",
    "opening_hours": { "open_now": false },
    "photo": "https://maps.googleapis.com/maps/api/place/js/PhotoService.GetPhoto?1sCmRaAAAAqOpd1qqNK-mAQlYYK0WQkWKnd2DEFflLOJ9kEy0emkkqIW6v4R4dNGEeDuuzVpvM4VRKQdLU-_Y5vENw6Mst04HGkIHkaesR99vrOlzPvWd6Dr6mXrifwCdbSzvzoLCmEhAVyIfubqLab_9Mc97AgdcJGhS08PqfTGV2YXexxhssOAeRFXuH8Q&3u2592&5m1&2e1&callback=none&key=AIzaSyDpY6WL8JItnEEaReTqil6YNEgvwtSMPgA&token=113965",
    "name": "Topeka And Shawnee County Public Library",
    "phone": "(785) 580-4400"
  },
  {
    "id": 316,
    "formatted_address": "215 W Main St, Toronto, KS 66777, USA",
    "lat": 37.7983691,
    "lng": -95.95190919999999,
    "rating": 5,
    "place_id": "ChIJCa3mww-nuYcRLH4dXlK_UuQ",
    "opening_hours": { "open_now": false },
    "photo": "https://maps.googleapis.com/maps/api/place/js/PhotoService.GetPhoto?1sCmRaAAAANQTqFoKmCCoPHUgnf0oCIZ7Ddhu3kNJqiU27VsHN_wechZpfWO01PWyqs0U_gFHB8T9T3JGtLGY49dazbHS8nTF-bVB5o-G-FuKrTW3a0ZCwMHnOoqTaEHP54DO8ycoQEhAxMCfFxNyaefP9_Bl2MYusGhQgbvARyqC3LsSAYF3FZh8QQ6tC7A&3u972&5m1&2e1&callback=none&key=AIzaSyDpY6WL8JItnEEaReTqil6YNEgvwtSMPgA&token=119378",
    "name": "Toronto Public Library",
    "phone": "(620) 637-2661"
  },
  {
    "id": 317,
    "formatted_address": "620 Highland St, Towanda, KS 67144, USA",
    "lat": 37.79937,
    "lng": -96.99952389999999,
    "rating": 3.4,
    "place_id": "ChIJHamXpZusu4cRF8qXtOpcih0",
    "opening_hours": { "open_now": false },
    "photo": "https://maps.googleapis.com/maps/api/place/js/PhotoService.GetPhoto?1sCmRaAAAAwgHBmsqs4PrK-aJFmNdxMuCq_MHjG-GjaKhzlist8AJsCAJiTR_cQ702May5RaiDrXOVKLjwUBQsBRKU8buV9ngbDKkDEfBrmQ1ZzOH9bxgXpznucRcK6E2QuPP4Eb7_EhCi1gCcZN7aMlMuu2NGZyQ1GhRT0dwwlHVYH5ZczOWPUX4NV9zQSA&3u2448&5m1&2e1&callback=none&key=AIzaSyDpY6WL8JItnEEaReTqil6YNEgvwtSMPgA&token=82441",
    "name": "Towanda Public Library",
    "phone": "(316) 536-2464"
  },
  {
    "id": 318,
    "formatted_address": "517 Broadway Ave, Tribune, KS 67879, USA",
    "lat": 38.4708805,
    "lng": -101.75244370000001,
    "rating": 0,
    "place_id": "ChIJ8yTH1CyUC4cRaIYOYhapO80",
    "opening_hours": { "open_now": false },
    "photo": null,
    "name": "Greeley County Public Library",
    "phone": "(620) 376-4801"
  },
  {
    "id": 319,
    "formatted_address": "105 N Main St, Troy, KS 66087, USA",
    "lat": 39.78704,
    "lng": -95.08984369999996,
    "rating": 3,
    "place_id": "ChIJkTPjR834v4cRkzd8RMRHskY",
    "opening_hours": { "open_now": false },
    "photo": null,
    "name": "Library District 1, Doniphan County",
    "phone": "(785) 985-2597"
  },
  {
    "id": 320,
    "formatted_address": "501 Price St, Turon, KS 67583, USA",
    "lat": 37.8057233,
    "lng": -98.42371200000002,
    "rating": 5,
    "place_id": "ChIJnzN5zKD5pIcRuhF2Ir9jSUI",
    "opening_hours": { "open_now": false },
    "photo": "https://maps.googleapis.com/maps/api/place/js/PhotoService.GetPhoto?1sCmRaAAAAg10dGL-R48NhP9NW0MFd2vkVBcVdxMvWKI8GZcpOxMtqBwpTjTp7njDjIzOhwMofMtXwPsPSqKfhm7E3j71r_8y1rjKUC-GyUdDbzMJWitw5Mgztv96DESLS6Ehmdrb6EhD_C06ejHcYcCC0zfaiftV3GhR77L5dGUfiI2iyRbpDIbKIk1Jlqg&3u4000&5m1&2e1&callback=none&key=AIzaSyDpY6WL8JItnEEaReTqil6YNEgvwtSMPgA&token=17275",
    "name": "Turon Community Library",
    "phone": "(620) 497-6409"
  },
  {
    "id": 321,
    "formatted_address": "109 E 1st St, Udall, KS 67146, USA",
    "lat": 37.3872024,
    "lng": -97.11679800000002,
    "rating": 0,
    "place_id": "ChIJ41XMffOKuocRi-JzdUij-4k",
    "opening_hours": { "open_now": false },
    "photo": "https://maps.googleapis.com/maps/api/place/js/PhotoService.GetPhoto?1sCmRaAAAA0xHKSi9GOLKoV8jZwTjavRL-ajLuD9HQxCnw6YrHSUuQs1qANSstbj6y6VWAnnrMM98iNp0HoptDTKeB_LpY0W-ztVXgAh9JuxReOPfkVIh6lf5xUWg7jc4PC4rsPFF0EhBaNTZAbMqyUgXjGCWm7JpaGhQ6M2-qGDQVY6FY1rsE4ykyBtw92g&3u4128&5m1&2e1&callback=none&key=AIzaSyDpY6WL8JItnEEaReTqil6YNEgvwtSMPgA&token=126823",
    "name": "Udall Public Library",
    "phone": "(620) 782-3435"
  },
  {
    "id": 322,
    "formatted_address": "215 E Grant Ave, Ulysses, KS 67880, USA",
    "lat": 37.58055090000001,
    "lng": -101.35572819999999,
    "rating": 5,
    "place_id": "ChIJgQG9pe0HCYcRHZQvzgzWexs",
    "opening_hours": { "open_now": false },
    "photo": null,
    "name": "Grant County Library",
    "phone": "(620) 356-1433"
  },
  {
    "id": 323,
    "formatted_address": "249 N Ohio Ave, Utica, KS 67584, USA",
    "lat": 38.6455591,
    "lng": -100.17024730000003,
    "rating": 1,
    "place_id": "ChIJCzh65qbuoIcRv97fYs7PWkk",
    "photo": null,
    "name": "Utica Library Association",
    "phone": "(785) 391-2419"
  },
  {
    "id": 324,
    "formatted_address": "314 E Clay St, Valley Center, KS 67147, USA",
    "lat": 37.828877,
    "lng": -97.36875800000001,
    "rating": 5,
    "place_id": "ChIJwxktQjUZu4cRx4yq396srfA",
    "opening_hours": { "open_now": false },
    "photo": null,
    "name": "Edna Buschow Memorial Library",
    "phone": "(316) 755-7350"
  },
  {
    "id": 325,
    "formatted_address": "421 5th St, Valley Falls, KS 66088, USA",
    "lat": 39.344829,
    "lng": -95.458191,
    "rating": 0,
    "place_id": "ChIJaeleE0ejv4cRayAAgCtFm7M",
    "opening_hours": { "open_now": false },
    "photo": "https://maps.googleapis.com/maps/api/place/js/PhotoService.GetPhoto?1sCmRaAAAAlXeY206O5VtHbeZzRQTt3nppx4VhIOoMYpShwNg1gyt-f67bPKtoQ-V7fDlg7BVKQcScgNginRD-sex9U39kIwHKyTMYp0hs8GvZoWhzW8naKyaI5SOeClnxsDAXoJquEhCOlqp6FM9u7jRQftp_WivtGhQgt3lbDfZRGuBZ32K_g9tNuUojfg&3u3000&5m1&2e1&callback=none&key=AIzaSyDpY6WL8JItnEEaReTqil6YNEgvwtSMPgA&token=97405",
    "name": "Delaware Township Library",
    "phone": "(785) 945-3990"
  },
  {
    "id": 326,
    "formatted_address": "102 Main St, Vermillion, KS 66544, USA",
    "lat": 39.6964612,
    "lng": -96.26185799999996,
    "rating": 0,
    "place_id": "ChIJ96N5--YEvocRCiUTfeGqysc",
    "opening_hours": { "open_now": false },
    "photo": null,
    "name": "Vermillion Public Library",
    "phone": "(785) 382-6227"
  },
  {
    "id": 327,
    "formatted_address": "Viola, KS 67149, USA",
    "lat": 37.5408616,
    "lng": -97.63311299999998,
    "place_id": "ChIJk4f-ZYvPuocR6n7zKEZx9Z8",
    "photo": null,
    "name": "Viola Township",
    "phone": "(620) 584-6679"
  },
  {
    "id": 328,
    "formatted_address": "610 Russell Ave, WaKeeney, KS 67672, USA",
    "lat": 39.0255228,
    "lng": -99.88225899999998,
    "rating": 0,
    "place_id": "ChIJ4fLbfyCtoYcRR5k7dE81Tgo",
    "opening_hours": { "open_now": false },
    "photo": null,
    "name": "Wakeeney Public Library",
    "phone": "(785) 743-2960"
  },
  {
    "id": 329,
    "formatted_address": "205 3rd St, Wakefield, KS 67487, USA",
    "lat": 39.2123217,
    "lng": -97.0131265,
    "rating": 0,
    "place_id": "ChIJ0QlB7EmpvYcRpwBzD4HMZ1c",
    "photo": null,
    "name": "Wakefield Public Library",
    "phone": "(785) 461-5510"
  },
  {
    "id": 330,
    "formatted_address": "511 W Robbins St, Walnut, KS 66780, USA",
    "lat": 37.5988681,
    "lng": -95.08083299999998,
    "rating": 0,
    "place_id": "ChIJlcznAMJ1uIcRMD_lmx0ZK1I",
    "opening_hours": { "open_now": false },
    "photo": null,
    "name": "Walnut Public Library",
    "phone": "(620) 354-6794"
  },
  {
    "id": 331,
    "formatted_address": "122 Main St, Walton, KS 67151, USA",
    "lat": 38.1181425,
    "lng": -97.25658699999997,
    "rating": 0,
    "place_id": "ChIJiR_t65lyu4cRCUluc-m4-3g",
    "photo": null,
    "name": "Walton Community Library",
    "phone": "(620) 837-3252"
  },
  {
    "id": 332,
    "formatted_address": "431 Lincoln Ave, Wamego, KS 66547, USA",
    "lat": 39.20198000000001,
    "lng": -96.3053668,
    "rating": 5,
    "place_id": "ChIJ3UfaXzd8vocRVlxz782DkqU",
    "opening_hours": { "open_now": false },
    "photo": null,
    "name": "Wamego Public Library",
    "phone": "(785) 456-9181"
  },
  {
    "id": 333,
    "formatted_address": "116 E 2nd St, Washington, KS 66968, USA",
    "lat": 39.8186788,
    "lng": -97.05025080000001,
    "rating": 5,
    "place_id": "ChIJN5UkCggrlocRv_COxi9EGdA",
    "opening_hours": { "open_now": false },
    "photo": null,
    "name": "Washington Library",
    "phone": "(785) 325-2114"
  },
  {
    "id": 334,
    "formatted_address": "405 Main St, Bern, KS 66408, USA",
    "lat": 39.9628315,
    "lng": -95.96836780000001,
    "rating": 0,
    "place_id": "ChIJl_RnPbCKlYcR-NGtgzRWNQg",
    "photo": null,
    "name": "Bern Community Library",
    "phone": "(785) 336-3000"
  },
  {
    "id": 335,
    "formatted_address": "129 E Commercial St, Waterville, KS 66548, USA",
    "lat": 39.692416,
    "lng": -96.74808989999997,
    "rating": 5,
    "place_id": "ChIJDdrKUE3zvYcRncWvuSO2jm4",
    "opening_hours": { "open_now": false },
    "photo": null,
    "name": "Waterville Public Library",
    "phone": "(785) 353-2769"
  },
  {
    "id": 336,
    "formatted_address": "401 St Joseph St, Wathena, KS 66090, USA",
    "lat": 39.7597197,
    "lng": -94.94893179999997,
    "rating": 5,
    "place_id": "ChIJQWORr0kEwIcRvjnTZB_rTxM",
    "opening_hours": { "open_now": false },
    "photo": null,
    "name": "Wathena Branch Library",
    "phone": "(785) 989-4711"
  },
  {
    "id": 337,
    "formatted_address": "111 E Main St, Weir, KS 66781, USA",
    "lat": 37.3102599,
    "lng": -94.770984,
    "rating": 5,
    "place_id": "ChIJdYNfC9_mx4cRFPXANGy1Ujg",
    "opening_hours": { "open_now": false },
    "photo": null,
    "name": "Weir Public Library",
    "phone": "(620) 396-8899"
  },
  {
    "id": 338,
    "formatted_address": "121 W 7th St, Wellington, KS 67152, USA",
    "lat": 37.2669929,
    "lng": -97.39902289999998,
    "rating": 5,
    "place_id": "ChIJ0c0SWqaXuocRIRpN8a9xwbk",
    "opening_hours": { "open_now": false },
    "photo": null,
    "name": "Wellington Public",
    "phone": "(620) 326-2011"
  },
  {
    "id": 339,
    "formatted_address": "115 W 6th St, Wellsville, KS 66092, USA",
    "lat": 38.7188,
    "lng": -95.08280000000002,
    "rating": 5,
    "place_id": "ChIJLW_W-iJYv4cRkHToFwqa_D0",
    "opening_hours": { "open_now": false },
    "photo": "https://maps.googleapis.com/maps/api/place/js/PhotoService.GetPhoto?1sCmRZAAAAXNcqtLPXxVokt4uIN2ERXMKP_UodPTwNp4NmR3kAivM_5UtplG2-V0xMFZViu-g1TBi5BUSraOu_sROU6KffZHRrrUjvaBhW1ldYTi_2G1wqllPHzrMcAU5xiv-RSEFDEhDRzv9flA8Sua4wkYxJI714GhSG1JVLWYVqzoLtsBI3YZv_ruAhmg&3u4096&5m1&2e1&callback=none&key=AIzaSyDpY6WL8JItnEEaReTqil6YNEgvwtSMPgA&token=99283",
    "name": "Wellsville City Library",
    "phone": "(785) 883-2870"
  },
  {
    "id": 340,
    "formatted_address": "328 2nd St, Wetmore, KS 66550, USA",
    "lat": 39.6321474,
    "lng": -95.8106224,
    "rating": 0,
    "place_id": "ChIJ1XeKXCsyvocRAR9PCV-Tj2s",
    "opening_hours": { "open_now": false },
    "photo": null,
    "name": "Wetmore Public Library",
    "phone": "(785) 866-2250"
  },
  {
    "id": 341,
    "formatted_address": "111 E MacKenzie St, White City, KS 66872, USA",
    "lat": 38.7955589,
    "lng": -96.73520919999999,
    "rating": 1,
    "place_id": "ChIJE726WuI_vIcRWn_VTU8Sf-s",
    "photo": null,
    "name": "White City Public Library",
    "phone": "(785) 349-5551"
  },
  {
    "id": 342,
    "formatted_address": "118 E Topeka St, Whitewater, KS 67154, USA",
    "lat": 37.9627908,
    "lng": -97.14832910000001,
    "rating": 5,
    "place_id": "ChIJdUqHfOUIu4cR_GECnaltvH4",
    "opening_hours": { "open_now": false },
    "photo": null,
    "name": "Whitewater Memorial Library",
    "phone": "(316) 799-2471"
  },
  {
    "id": 343,
    "formatted_address": "3447 S Meridian Ave, Wichita, KS 67217, USA",
    "lat": 37.6317635,
    "lng": -97.37280670000001,
    "rating": 4.7,
    "place_id": "ChIJv4yNgZLmuocRRAYPcfmfNQw",
    "opening_hours": { "open_now": false },
    "photo": "https://maps.googleapis.com/maps/api/place/js/PhotoService.GetPhoto?1sCmRaAAAAVxzXh4a0-MemQ-RLfdN8lIyTlc4h6LmZbEiZAVRKcrDl3woeMLqTgBm5VY0AuxnWphRk7LX1aGDO7kltx7_iHUYsDsg61jPwDASowMbuifDoF88T4B3kXCIhIiUFITQ0EhA09cyADe8j9ws21XJCCltZGhSyJuRQLfZoLzl5DlP3qkMM99rheQ&3u5152&5m1&2e1&callback=none&key=AIzaSyDpY6WL8JItnEEaReTqil6YNEgvwtSMPgA&token=70816",
    "name": "Alford Branch Library",
    "phone": "(316) 337-9119"
  },
  {
    "id": 344,
    "formatted_address": "5939 E 9th St N, Wichita, KS 67208, USA",
    "lat": 37.7006533,
    "lng": -97.26731649999999,
    "rating": 4,
    "place_id": "ChIJw9rghTLjuocR7_LW7QpxsUQ",
    "opening_hours": { "open_now": false },
    "photo": "https://maps.googleapis.com/maps/api/place/js/PhotoService.GetPhoto?1sCmRaAAAAeZoI730nrtrTKYn9SC2MxAi08dlIbUdl2QwK68fO7nCPwOi2z9dZlFLXEMQhF5QP4lZ-nsqL_erUHKqqA7wxsEHCHecM2uxPDz31V7MyJCWzXi1uXXOWRWYRYmMi_64UEhD2qWdvfFh2pgScM5uT4E0bGhTQf3MWB3TjUxLN64PVwzOwzc6PPQ&3u6000&5m1&2e1&callback=none&key=AIzaSyDpY6WL8JItnEEaReTqil6YNEgvwtSMPgA&token=38298",
    "name": "Ford Rockwell Branch Library",
    "phone": "(316) 688-9361"
  },
  {
    "id": 345,
    "formatted_address": "1901 S Kansas St, Wichita, KS 67211, USA",
    "lat": 37.6590551,
    "lng": -97.3139309,
    "rating": 4.9,
    "place_id": "ChIJceEehHzkuocRJdRz8A0bmoM",
    "opening_hours": { "open_now": false },
    "photo": "https://maps.googleapis.com/maps/api/place/js/PhotoService.GetPhoto?1sCmRaAAAAVefeqcaozsZOdC3Tu-e5HMpkg59r58H7AXqu0aAYPDLmI8xPlovuaZ5jqZ5jOwZ48o84AtebTCQUU0WJgSHx4yBF7nfl0GoJRCqtfiIzK-4ZTFEX-LQjuNlIyysQI8t2EhCQj78OCdpRe6ocrb97oSzWGhSe-SxPxppUf1IPAKunLPEnXhPNcg&3u1080&5m1&2e1&callback=none&key=AIzaSyDpY6WL8JItnEEaReTqil6YNEgvwtSMPgA&token=94665",
    "name": "Linwood Park Branch Library",
    "phone": "(316) 337-9125"
  },
  {
    "id": 346,
    "formatted_address": "8515 Bekemeyer St, Wichita, KS 67212, USA",
    "lat": 37.6970342,
    "lng": -97.44158149999998,
    "rating": 4.7,
    "place_id": "ChIJmzQVxiveuocRaw3B1y3Yv2A",
    "opening_hours": { "open_now": false },
    "photo": "https://maps.googleapis.com/maps/api/place/js/PhotoService.GetPhoto?1sCmRaAAAAJ9zfv1LcPodyGjPbFuIcTzKBtx3JMEnrTXByte0sXVr5dscq4YPTlWULPG9hBrTCoAieeSybkBlQ-VZjEFfJVCpPbE0mNdFiPF48RTCVU30ZJ0PxPpHIvPKsmYwlacZ5EhC7Ah12or4XMnfWRRMZ52ESGhSlYp0GjGl8RfVVXshrUUwwO4xoBw&3u5312&5m1&2e1&callback=none&key=AIzaSyDpY6WL8JItnEEaReTqil6YNEgvwtSMPgA&token=117543",
    "name": "Westlink Branch Library",
    "phone": "(316) 337-9456"
  },
  {
    "id": 347,
    "formatted_address": "223 N Main St, Wichita, KS 67202, USA",
    "lat": 37.6887146,
    "lng": -97.33857390000003,
    "rating": 0,
    "place_id": "ChIJHcMQWujjuocRhuiqTAQQOJA",
    "photo": null,
    "name": "Wichita Public Library",
    "phone": "(316) 261-8500"
  },
  {
    "id": 348,
    "formatted_address": "107 N Louisa Ave, Williamsburg, KS 66095, USA",
    "lat": 38.4782656,
    "lng": -95.46507299999996,
    "rating": 5,
    "place_id": "ChIJf4rAnJzLuIcRSAzvyEbj89g",
    "photo": null,
    "name": "Williamsburg Community Library",
    "phone": "(785) 746-5407"
  },
  {
    "id": 349,
    "formatted_address": "213 N 5th St, Wilsey, KS 66873, USA",
    "lat": 38.6376399,
    "lng": -96.67685549999999,
    "rating": 0,
    "place_id": "ChIJpzVDBA8SvIcRRq3keOn6hiU",
    "photo": null,
    "name": "Elm Creek Township Library",
    "phone": "(785) 497-2289"
  },
  {
    "id": 350,
    "formatted_address": "2405 Ave F, Wilson, KS 67490, USA",
    "lat": 38.82477859999999,
    "lng": -98.4757184,
    "rating": 3.5,
    "place_id": "ChIJGX90QhgIo4cR3MXVdbegqng",
    "opening_hours": { "open_now": false },
    "photo": "https://maps.googleapis.com/maps/api/place/js/PhotoService.GetPhoto?1sCmRaAAAAreIQgELOp4hy3NAPEH8NShMRKA6iSeR9PZ6SXeRnpGnIWN5YO6EuUCXOntJPFKubuPb2EilGolKdRzEESIN45gtqfukhSCl8qzMHizJRfBLT1ovtcAulH07ZVxDn9Ca6EhBKww6KvvOfomFRCC6GN533GhSRMDxk_kkdYT323fPkT77QokD6Xg&3u282&5m1&2e1&callback=none&key=AIzaSyDpY6WL8JItnEEaReTqil6YNEgvwtSMPgA&token=24527",
    "name": "Lang Memorial",
    "phone": "(785) 658-3648"
  },
  {
    "id": 351,
    "formatted_address": "203 4th St, Winchester, KS 66097, USA",
    "lat": 39.3239475,
    "lng": -95.26830180000002,
    "rating": 5,
    "place_id": "ChIJ23cVeQCbv4cRZ6YW4arqq2s",
    "opening_hours": { "open_now": false },
    "photo": null,
    "name": "Winchester Public Library",
    "phone": "(913) 774-4967"
  },
  {
    "id": 352,
    "formatted_address": "605 College St, Winfield, KS 67156, USA",
    "lat": 37.2433775,
    "lng": -96.97893720000002,
    "rating": 4.6,
    "place_id": "ChIJvymc3T17uocR-_CMWB6xu3o",
    "opening_hours": { "open_now": false },
    "photo": "https://maps.googleapis.com/maps/api/place/js/PhotoService.GetPhoto?1sCmRaAAAAkB26xpjXT6DSld6qxLaOExU-eePfhdp-2g7Lc-W2nUutUX3scftgj9f6Zq57UwjEeIK9KGP5fO-4rhqe-bi1S784v6ehSUMlloEgOniyNJp787Es99bBtuY59HuDCMe8EhDUh_PbhPsyGeIArhYGwh7bGhTzu5V60jSB_kASdGMdwEyZhNS6tg&3u5087&5m1&2e1&callback=none&key=AIzaSyDpY6WL8JItnEEaReTqil6YNEgvwtSMPgA&token=59224",
    "name": "Winfield Public Library",
    "phone": "(620) 221-4470"
  },
  {
    "id": 353,
    "formatted_address": "218 N Main St, Yates Center, KS 66783, USA",
    "lat": 37.8831428,
    "lng": -95.73212619999998,
    "rating": 5,
    "place_id": "ChIJIfgbIdUBuYcRt2-rjEZxwVE",
    "opening_hours": { "open_now": false },
    "photo": "https://maps.googleapis.com/maps/api/place/js/PhotoService.GetPhoto?1sCmRaAAAA7LPcLgD3cVwnMs-lBtlKRlmyHkjf376L9jrl45QXWFG20BuQ7Qj2QK9f61l5ALvuYRsFbIOCz6i2gWDp0nDooXpHvctREouf8riKDvoDi8efxloLLAeBN9mDzYE7AxPiEhAASLSWcYSJTjrTE4n9WM7OGhRu-4nJ70LKw7MeUN6A51725RNEeg&3u970&5m1&2e1&callback=none&key=AIzaSyDpY6WL8JItnEEaReTqil6YNEgvwtSMPgA&token=79024",
    "name": "Yates Center Public Library",
    "phone": "(620) 625-3341"
  },
  {
    "id": 354,
    "formatted_address": "215 N Main St, Spivey, KS 67142, USA",
    "lat": 37.4439693,
    "lng": -98.28211929999998,
    "rating": 0,
    "place_id": "ChIJZ7a2nfwRpYcRqihcHWIOnX0",
    "opening_hours": { "open_now": false },
    "photo": null,
    "name": "Zenda Public Library",
    "phone": "(620) 243-5791"
  }
]
